{
"type": "FeatureCollection",
"crs": { "type": "name", "properties": { "name": "urn:ogc:def:crs:OGC:1.3:CRS84" } },
"features": [
{ "type": "Feature", "properties": { "osm_id": "4278023338", "code": 2301, "fclass": "restaurant", "name": "Victory" }, "geometry": { "type": "Point", "coordinates": [ 16.4759935, 49.1840989 ] } },
{ "type": "Feature", "properties": { "osm_id": "296608120", "code": 2301, "fclass": "restaurant", "name": "Jakoby" }, "geometry": { "type": "Point", "coordinates": [ 16.6085328, 49.1969623 ] } },
{ "type": "Feature", "properties": { "osm_id": "296611326", "code": 2303, "fclass": "cafe", "name": "MĂ­sto MultimediĂˇlnĂ­ch MoĹľnostĂ­" }, "geometry": { "type": "Point", "coordinates": [ 16.5770182, 49.2406586 ] } },
{ "type": "Feature", "properties": { "osm_id": "296613386", "code": 2303, "fclass": "cafe", "name": null }, "geometry": { "type": "Point", "coordinates": [ 16.6035166, 49.2002875 ] } },
{ "type": "Feature", "properties": { "osm_id": "1602227660", "code": 2301, "fclass": "restaurant", "name": "NebeskĂ˝ MlĂ˝n" }, "geometry": { "type": "Point", "coordinates": [ 16.5926574, 49.226619 ] } },
{ "type": "Feature", "properties": { "osm_id": "1225703384", "code": 2303, "fclass": "cafe", "name": "Cesta ÄŚaje" }, "geometry": { "type": "Point", "coordinates": [ 16.6129999, 49.1940274 ] } },
{ "type": "Feature", "properties": { "osm_id": "296620839", "code": 2301, "fclass": "restaurant", "name": "Bistro Franz" }, "geometry": { "type": "Point", "coordinates": [ 16.6024906, 49.1995359 ] } },
{ "type": "Feature", "properties": { "osm_id": "2308076670", "code": 2301, "fclass": "restaurant", "name": "Pekanda" }, "geometry": { "type": "Point", "coordinates": [ 16.5959652, 49.1916854 ] } },
{ "type": "Feature", "properties": { "osm_id": "2308078447", "code": 2301, "fclass": "restaurant", "name": "ĂÄŤko" }, "geometry": { "type": "Point", "coordinates": [ 16.59714, 49.191824 ] } },
{ "type": "Feature", "properties": { "osm_id": "2308079183", "code": 2303, "fclass": "cafe", "name": "CafĂ© Brussel" }, "geometry": { "type": "Point", "coordinates": [ 16.5975557, 49.1917722 ] } },
{ "type": "Feature", "properties": { "osm_id": "4646616592", "code": 2303, "fclass": "cafe", "name": "Forrum Cafe Bar" }, "geometry": { "type": "Point", "coordinates": [ 16.5860516, 49.2214904 ] } },
{ "type": "Feature", "properties": { "osm_id": "3235053200", "code": 2303, "fclass": "cafe", "name": "Coffee Fusion" }, "geometry": { "type": "Point", "coordinates": [ 16.6117365, 49.194991 ] } },
{ "type": "Feature", "properties": { "osm_id": "1765715447", "code": 2303, "fclass": "cafe", "name": "Tungsram" }, "geometry": { "type": "Point", "coordinates": [ 16.6093935, 49.191529 ] } },
{ "type": "Feature", "properties": { "osm_id": "2060218408", "code": 2301, "fclass": "restaurant", "name": null }, "geometry": { "type": "Point", "coordinates": [ 16.7372955, 49.2545429 ] } },
{ "type": "Feature", "properties": { "osm_id": "2308089004", "code": 2305, "fclass": "bar", "name": "VinnĂ˝ sklep U ĹľĂ­znivĂ©ho mnicha" }, "geometry": { "type": "Point", "coordinates": [ 16.5980707, 49.1917126 ] } },
{ "type": "Feature", "properties": { "osm_id": "2308092853", "code": 2305, "fclass": "bar", "name": "Metro" }, "geometry": { "type": "Point", "coordinates": [ 16.601894, 49.1921561 ] } },
{ "type": "Feature", "properties": { "osm_id": "325728814", "code": 2301, "fclass": "restaurant", "name": "VelkĂˇ Klajdovka" }, "geometry": { "type": "Point", "coordinates": [ 16.6806497, 49.2168768 ] } },
{ "type": "Feature", "properties": { "osm_id": "1705160889", "code": 2303, "fclass": "cafe", "name": "Dvorek pod Petrovem" }, "geometry": { "type": "Point", "coordinates": [ 16.607435, 49.1914658 ] } },
{ "type": "Feature", "properties": { "osm_id": "1604174210", "code": 2301, "fclass": "restaurant", "name": "Temis" }, "geometry": { "type": "Point", "coordinates": [ 16.5974839, 49.2245267 ] } },
{ "type": "Feature", "properties": { "osm_id": "4561314620", "code": 2305, "fclass": "bar", "name": "Dominik Pub" }, "geometry": { "type": "Point", "coordinates": [ 16.6069181, 49.1934065 ] } },
{ "type": "Feature", "properties": { "osm_id": "613184037", "code": 2301, "fclass": "restaurant", "name": "Pizzerie Mozzarella" }, "geometry": { "type": "Point", "coordinates": [ 16.5706552, 49.2312217 ] } },
{ "type": "Feature", "properties": { "osm_id": "613184039", "code": 2301, "fclass": "restaurant", "name": "Menza KolejnĂ­" }, "geometry": { "type": "Point", "coordinates": [ 16.5700819, 49.2316159 ] } },
{ "type": "Feature", "properties": { "osm_id": "613184040", "code": 2303, "fclass": "cafe", "name": "CaffĂ© Bar Piccolo" }, "geometry": { "type": "Point", "coordinates": [ 16.570507, 49.2314242 ] } },
{ "type": "Feature", "properties": { "osm_id": "3114519061", "code": 2303, "fclass": "cafe", "name": "Pellini Top" }, "geometry": { "type": "Point", "coordinates": [ 16.6082298, 49.1968712 ] } },
{ "type": "Feature", "properties": { "osm_id": "3114519063", "code": 2301, "fclass": "restaurant", "name": "VeselĂˇ VaÄŤice" }, "geometry": { "type": "Point", "coordinates": [ 16.6091029, 49.1972533 ] } },
{ "type": "Feature", "properties": { "osm_id": "4225418831", "code": 2303, "fclass": "cafe", "name": "Skull Caffe" }, "geometry": { "type": "Point", "coordinates": [ 16.6072039, 49.1949519 ] } },
{ "type": "Feature", "properties": { "osm_id": "3114519064", "code": 2303, "fclass": "cafe", "name": "CafĂ© Typos" }, "geometry": { "type": "Point", "coordinates": [ 16.6092329, 49.1973234 ] } },
{ "type": "Feature", "properties": { "osm_id": "3114519065", "code": 2301, "fclass": "restaurant", "name": "TenkrĂˇt na ZĂˇpadÄ›" }, "geometry": { "type": "Point", "coordinates": [ 16.6093456, 49.1973015 ] } },
{ "type": "Feature", "properties": { "osm_id": "4225418836", "code": 2301, "fclass": "restaurant", "name": "Go" }, "geometry": { "type": "Point", "coordinates": [ 16.6090385, 49.1959019 ] } },
{ "type": "Feature", "properties": { "osm_id": "3114535251", "code": 2303, "fclass": "cafe", "name": "La VĂˇza" }, "geometry": { "type": "Point", "coordinates": [ 16.6090425, 49.1956653 ] } },
{ "type": "Feature", "properties": { "osm_id": "613520231", "code": 2301, "fclass": "restaurant", "name": "U Karla" }, "geometry": { "type": "Point", "coordinates": [ 16.6026518, 49.20595 ] } },
{ "type": "Feature", "properties": { "osm_id": "3163386375", "code": 2305, "fclass": "bar", "name": "Kabinet MĂşz" }, "geometry": { "type": "Point", "coordinates": [ 16.6124839, 49.1956196 ] } },
{ "type": "Feature", "properties": { "osm_id": "3666654970", "code": 2301, "fclass": "restaurant", "name": "VÄ›trnĂ­k" }, "geometry": { "type": "Point", "coordinates": [ 16.6639736, 49.2915033 ] } },
{ "type": "Feature", "properties": { "osm_id": "613526546", "code": 2301, "fclass": "restaurant", "name": "U OslĹŻ" }, "geometry": { "type": "Point", "coordinates": [ 16.5990667, 49.2031936 ] } },
{ "type": "Feature", "properties": { "osm_id": "613526547", "code": 2301, "fclass": "restaurant", "name": "Ellas" }, "geometry": { "type": "Point", "coordinates": [ 16.5984283, 49.2028729 ] } },
{ "type": "Feature", "properties": { "osm_id": "613526552", "code": 2301, "fclass": "restaurant", "name": "CafĂ© 04" }, "geometry": { "type": "Point", "coordinates": [ 16.5962612, 49.2035709 ] } },
{ "type": "Feature", "properties": { "osm_id": "4367984777", "code": 2303, "fclass": "cafe", "name": "Black Point CafĂ©" }, "geometry": { "type": "Point", "coordinates": [ 16.6126184, 49.2007062 ] } },
{ "type": "Feature", "properties": { "osm_id": "3163447758", "code": 2305, "fclass": "bar", "name": "Havana Club Bar" }, "geometry": { "type": "Point", "coordinates": [ 16.6070105, 49.1934308 ] } },
{ "type": "Feature", "properties": { "osm_id": "3589310866", "code": 2303, "fclass": "cafe", "name": "Basta Coffe" }, "geometry": { "type": "Point", "coordinates": [ 16.6075442, 49.1954037 ] } },
{ "type": "Feature", "properties": { "osm_id": "613526554", "code": 2301, "fclass": "restaurant", "name": "Legenda" }, "geometry": { "type": "Point", "coordinates": [ 16.5957538, 49.2034023 ] } },
{ "type": "Feature", "properties": { "osm_id": "613526561", "code": 2301, "fclass": "restaurant", "name": "U havrana" }, "geometry": { "type": "Point", "coordinates": [ 16.6014694, 49.2054882 ] } },
{ "type": "Feature", "properties": { "osm_id": "1494506565", "code": 2303, "fclass": "cafe", "name": "Ventana CafĂ©" }, "geometry": { "type": "Point", "coordinates": [ 16.5958549, 49.2264508 ] } },
{ "type": "Feature", "properties": { "osm_id": "1895263902", "code": 2301, "fclass": "restaurant", "name": "Holiday" }, "geometry": { "type": "Point", "coordinates": [ 16.5533805, 49.2174528 ] } },
{ "type": "Feature", "properties": { "osm_id": "3163447861", "code": 2305, "fclass": "bar", "name": "Two Faces Cocktail Bar" }, "geometry": { "type": "Point", "coordinates": [ 16.6066752, 49.1933212 ] } },
{ "type": "Feature", "properties": { "osm_id": "1895263903", "code": 2301, "fclass": "restaurant", "name": "U MocnĂˇĹ™e" }, "geometry": { "type": "Point", "coordinates": [ 16.5548631, 49.2178958 ] } },
{ "type": "Feature", "properties": { "osm_id": "3163458282", "code": 2303, "fclass": "cafe", "name": "Mitte" }, "geometry": { "type": "Point", "coordinates": [ 16.6078862, 49.1933698 ] } },
{ "type": "Feature", "properties": { "osm_id": "613526565", "code": 2301, "fclass": "restaurant", "name": "EspaĂ±ola" }, "geometry": { "type": "Point", "coordinates": [ 16.600002, 49.2065022 ] } },
{ "type": "Feature", "properties": { "osm_id": "3163458283", "code": 2303, "fclass": "cafe", "name": "Galerie Caffe" }, "geometry": { "type": "Point", "coordinates": [ 16.6089035, 49.1950451 ] } },
{ "type": "Feature", "properties": { "osm_id": "3487704769", "code": 2301, "fclass": "restaurant", "name": "JĂ­delna" }, "geometry": { "type": "Point", "coordinates": [ 16.6173864, 49.1961049 ] } },
{ "type": "Feature", "properties": { "osm_id": "3163520276", "code": 2301, "fclass": "restaurant", "name": "Rebio" }, "geometry": { "type": "Point", "coordinates": [ 16.6073627, 49.1930786 ] } },
{ "type": "Feature", "properties": { "osm_id": "1494789736", "code": 2301, "fclass": "restaurant", "name": "Na Ĺ vĂˇbce" }, "geometry": { "type": "Point", "coordinates": [ 16.6010192, 49.1970252 ] } },
{ "type": "Feature", "properties": { "osm_id": "613526571", "code": 2301, "fclass": "restaurant", "name": "La Strada" }, "geometry": { "type": "Point", "coordinates": [ 16.5996509, 49.2033888 ] } },
{ "type": "Feature", "properties": { "osm_id": "4280128353", "code": 2303, "fclass": "cafe", "name": "Mamut Cafe" }, "geometry": { "type": "Point", "coordinates": [ 16.6089544, 49.1905877 ] } },
{ "type": "Feature", "properties": { "osm_id": "3163520277", "code": 2303, "fclass": "cafe", "name": "Jedna bĂˇseĹ" }, "geometry": { "type": "Point", "coordinates": [ 16.6123983, 49.1958818 ] } },
{ "type": "Feature", "properties": { "osm_id": "1494789738", "code": 2301, "fclass": "restaurant", "name": "ZlatĂˇ miska" }, "geometry": { "type": "Point", "coordinates": [ 16.6012107, 49.1971831 ] } },
{ "type": "Feature", "properties": { "osm_id": "4280128354", "code": 2301, "fclass": "restaurant", "name": "LetnĂ­ terasa BaĹˇty" }, "geometry": { "type": "Point", "coordinates": [ 16.6105355, 49.1908033 ] } },
{ "type": "Feature", "properties": { "osm_id": "3163547432", "code": 2305, "fclass": "bar", "name": "VinotĂ©ka" }, "geometry": { "type": "Point", "coordinates": [ 16.5869007, 49.1896835 ] } },
{ "type": "Feature", "properties": { "osm_id": "3163547433", "code": 2305, "fclass": "bar", "name": "VinotĂ©ka Na KantnĂ˝Ĺ™i" }, "geometry": { "type": "Point", "coordinates": [ 16.5864313, 49.1896975 ] } },
{ "type": "Feature", "properties": { "osm_id": "1607779200", "code": 2301, "fclass": "restaurant", "name": "Klub cestovatelĹŻ" }, "geometry": { "type": "Point", "coordinates": [ 16.5972626, 49.2206034 ] } },
{ "type": "Feature", "properties": { "osm_id": "3489301289", "code": 2305, "fclass": "bar", "name": "Afro Bar Semba" }, "geometry": { "type": "Point", "coordinates": [ 16.61882, 49.1983688 ] } },
{ "type": "Feature", "properties": { "osm_id": "4280206588", "code": 2303, "fclass": "cafe", "name": "Na3Deci" }, "geometry": { "type": "Point", "coordinates": [ 16.6004263, 49.2005188 ] } },
{ "type": "Feature", "properties": { "osm_id": "3751950699", "code": 2301, "fclass": "restaurant", "name": "Restaurace U KlĂ­mĹŻ" }, "geometry": { "type": "Point", "coordinates": [ 16.6139023, 49.3099256 ] } },
{ "type": "Feature", "properties": { "osm_id": "4653015089", "code": 2303, "fclass": "cafe", "name": "Starbucks Coffee" }, "geometry": { "type": "Point", "coordinates": [ 16.5668065, 49.1772262 ] } },
{ "type": "Feature", "properties": { "osm_id": "2658155348", "code": 2301, "fclass": "restaurant", "name": "U TĹ™ech ÄŚertĹŻ" }, "geometry": { "type": "Point", "coordinates": [ 16.6106337, 49.1958434 ] } },
{ "type": "Feature", "properties": { "osm_id": "3489345442", "code": 2301, "fclass": "restaurant", "name": "Restaurant M" }, "geometry": { "type": "Point", "coordinates": [ 16.6262939, 49.2001188 ] } },
{ "type": "Feature", "properties": { "osm_id": "676518470", "code": 2301, "fclass": "restaurant", "name": "Restaurace Na MÄ›steÄŤku" }, "geometry": { "type": "Point", "coordinates": [ 16.4360191, 49.2762168 ] } },
{ "type": "Feature", "properties": { "osm_id": "296674323", "code": 2305, "fclass": "bar", "name": "Club FlĂ©da" }, "geometry": { "type": "Point", "coordinates": [ 16.6033523, 49.209866 ] } },
{ "type": "Feature", "properties": { "osm_id": "1608422305", "code": 2303, "fclass": "cafe", "name": "Nakanapi" }, "geometry": { "type": "Point", "coordinates": [ 16.6003957, 49.2106922 ] } },
{ "type": "Feature", "properties": { "osm_id": "2261569816", "code": 2305, "fclass": "bar", "name": "Bar, kterĂ˝ neexistuje" }, "geometry": { "type": "Point", "coordinates": [ 16.6097345, 49.1958782 ] } },
{ "type": "Feature", "properties": { "osm_id": "1608422306", "code": 2301, "fclass": "restaurant", "name": "Rybenka" }, "geometry": { "type": "Point", "coordinates": [ 16.6006636, 49.2107177 ] } },
{ "type": "Feature", "properties": { "osm_id": "2261574796", "code": 2305, "fclass": "bar", "name": "Terraza" }, "geometry": { "type": "Point", "coordinates": [ 16.6082432, 49.1942131 ] } },
{ "type": "Feature", "properties": { "osm_id": "2261582722", "code": 2301, "fclass": "restaurant", "name": "Monte BĂş" }, "geometry": { "type": "Point", "coordinates": [ 16.5839458, 49.2011602 ] } },
{ "type": "Feature", "properties": { "osm_id": "296692034", "code": 2303, "fclass": "cafe", "name": "KavĂˇrna a pekaĹ™stvĂ­ ZastĂˇvka" }, "geometry": { "type": "Point", "coordinates": [ 16.6349824, 49.1928779 ] } },
{ "type": "Feature", "properties": { "osm_id": "296693691", "code": 2301, "fclass": "restaurant", "name": "Cattani" }, "geometry": { "type": "Point", "coordinates": [ 16.6031438, 49.1991404 ] } },
{ "type": "Feature", "properties": { "osm_id": "2403304337", "code": 2301, "fclass": "restaurant", "name": "JAAN FOOD" }, "geometry": { "type": "Point", "coordinates": [ 16.6269514, 49.2015004 ] } },
{ "type": "Feature", "properties": { "osm_id": "296700244", "code": 2303, "fclass": "cafe", "name": "DuhovĂ˝ RĂˇj" }, "geometry": { "type": "Point", "coordinates": [ 16.6283891, 49.2210086 ] } },
{ "type": "Feature", "properties": { "osm_id": "2261965681", "code": 2301, "fclass": "restaurant", "name": "Amici" }, "geometry": { "type": "Point", "coordinates": [ 16.555354, 49.2091269 ] } },
{ "type": "Feature", "properties": { "osm_id": "2261966266", "code": 2301, "fclass": "restaurant", "name": "Charlies street" }, "geometry": { "type": "Point", "coordinates": [ 16.6321084, 49.1386694 ] } },
{ "type": "Feature", "properties": { "osm_id": "2199533459", "code": 2305, "fclass": "bar", "name": "MĂ˝dlo" }, "geometry": { "type": "Point", "coordinates": [ 16.6151463, 49.2019222 ] } },
{ "type": "Feature", "properties": { "osm_id": "3712435224", "code": 2301, "fclass": "restaurant", "name": "TRapas Bar" }, "geometry": { "type": "Point", "coordinates": [ 16.6060969, 49.1997275 ] } },
{ "type": "Feature", "properties": { "osm_id": "1709791008", "code": 2301, "fclass": "restaurant", "name": "La Corrida" }, "geometry": { "type": "Point", "coordinates": [ 16.5304245, 49.2260198 ] } },
{ "type": "Feature", "properties": { "osm_id": "2261968972", "code": 2303, "fclass": "cafe", "name": "Tripoli" }, "geometry": { "type": "Point", "coordinates": [ 16.632241, 49.1372019 ] } },
{ "type": "Feature", "properties": { "osm_id": "3712445425", "code": 2303, "fclass": "cafe", "name": "Ĺ estĂˇ vÄ›tev" }, "geometry": { "type": "Point", "coordinates": [ 16.6058636, 49.1996382 ] } },
{ "type": "Feature", "properties": { "osm_id": "1611767989", "code": 2301, "fclass": "restaurant", "name": "Nepal" }, "geometry": { "type": "Point", "coordinates": [ 16.5902086, 49.2244409 ] } },
{ "type": "Feature", "properties": { "osm_id": "2403973009", "code": 2301, "fclass": "restaurant", "name": "Camel" }, "geometry": { "type": "Point", "coordinates": [ 16.5970012, 49.2252991 ] } },
{ "type": "Feature", "properties": { "osm_id": "1612063561", "code": 2301, "fclass": "restaurant", "name": "Paladeo restaurante" }, "geometry": { "type": "Point", "coordinates": [ 16.5844221, 49.2209179 ] } },
{ "type": "Feature", "properties": { "osm_id": "447564121", "code": 2301, "fclass": "restaurant", "name": "U kostela" }, "geometry": { "type": "Point", "coordinates": [ 16.5542265, 49.1422118 ] } },
{ "type": "Feature", "properties": { "osm_id": "447564142", "code": 2305, "fclass": "bar", "name": "Disco bar Bobr Hall" }, "geometry": { "type": "Point", "coordinates": [ 16.5816573, 49.1144514 ] } },
{ "type": "Feature", "properties": { "osm_id": "1709824139", "code": 2301, "fclass": "restaurant", "name": "RybĂˇĹ™skĂˇ baĹˇta" }, "geometry": { "type": "Point", "coordinates": [ 16.5095679, 49.2285157 ] } },
{ "type": "Feature", "properties": { "osm_id": "3713159282", "code": 2303, "fclass": "cafe", "name": "CafĂ© Momenta" }, "geometry": { "type": "Point", "coordinates": [ 16.6097158, 49.1923593 ] } },
{ "type": "Feature", "properties": { "osm_id": "2262002206", "code": 2301, "fclass": "restaurant", "name": "Rendez Vous Pasta & Cafe" }, "geometry": { "type": "Point", "coordinates": [ 16.6244272, 49.2350666 ] } },
{ "type": "Feature", "properties": { "osm_id": "3713173000", "code": 2305, "fclass": "bar", "name": "Tres Gallos" }, "geometry": { "type": "Point", "coordinates": [ 16.6106306, 49.1913913 ] } },
{ "type": "Feature", "properties": { "osm_id": "1354993517", "code": 2303, "fclass": "cafe", "name": "CafĂ© R.S.C." }, "geometry": { "type": "Point", "coordinates": [ 16.6209556, 49.1921318 ] } },
{ "type": "Feature", "properties": { "osm_id": "1411240265", "code": 2301, "fclass": "restaurant", "name": "Koliba" }, "geometry": { "type": "Point", "coordinates": [ 16.5770336, 49.1945526 ] } },
{ "type": "Feature", "properties": { "osm_id": "2266875478", "code": 2305, "fclass": "bar", "name": "Rotor bar" }, "geometry": { "type": "Point", "coordinates": [ 16.6111994, 49.195946 ] } },
{ "type": "Feature", "properties": { "osm_id": "942927416", "code": 2303, "fclass": "cafe", "name": "Ĺ vanda" }, "geometry": { "type": "Point", "coordinates": [ 16.6102121, 49.1945042 ] } },
{ "type": "Feature", "properties": { "osm_id": "1239124549", "code": 2305, "fclass": "bar", "name": "Sportbar Luna" }, "geometry": { "type": "Point", "coordinates": [ 16.6087171, 49.1895175 ] } },
{ "type": "Feature", "properties": { "osm_id": "4031401619", "code": 2303, "fclass": "cafe", "name": "KoÄŤiÄŤĂ­ kavĂˇrna Envi cafĂ©" }, "geometry": { "type": "Point", "coordinates": [ 16.6167486, 49.1950883 ] } },
{ "type": "Feature", "properties": { "osm_id": "3165689371", "code": 2303, "fclass": "cafe", "name": "Labyrint" }, "geometry": { "type": "Point", "coordinates": [ 16.6058869, 49.2036608 ] } },
{ "type": "Feature", "properties": { "osm_id": "1411240357", "code": 2301, "fclass": "restaurant", "name": null }, "geometry": { "type": "Point", "coordinates": [ 16.5768522, 49.1946066 ] } },
{ "type": "Feature", "properties": { "osm_id": "942941201", "code": 2301, "fclass": "restaurant", "name": "Ĺ palĂ­ÄŤek" }, "geometry": { "type": "Point", "coordinates": [ 16.6081216, 49.1923021 ] } },
{ "type": "Feature", "properties": { "osm_id": "3165689373", "code": 2301, "fclass": "restaurant", "name": "Fresh Freaks Bistro" }, "geometry": { "type": "Point", "coordinates": [ 16.6070268, 49.2038868 ] } },
{ "type": "Feature", "properties": { "osm_id": "3165689374", "code": 2305, "fclass": "bar", "name": "Domino" }, "geometry": { "type": "Point", "coordinates": [ 16.6065531, 49.2034413 ] } },
{ "type": "Feature", "properties": { "osm_id": "4031417230", "code": 2303, "fclass": "cafe", "name": "KoÄŤiÄŤĂ­ kavĂˇrna PelĂ­Ĺˇek" }, "geometry": { "type": "Point", "coordinates": [ 16.6103194, 49.2034361 ] } },
{ "type": "Feature", "properties": { "osm_id": "1612493945", "code": 2303, "fclass": "cafe", "name": "CafĂ© Mezzanine" }, "geometry": { "type": "Point", "coordinates": [ 16.6007375, 49.1968122 ] } },
{ "type": "Feature", "properties": { "osm_id": "3165742971", "code": 2303, "fclass": "cafe", "name": "Paparazzi" }, "geometry": { "type": "Point", "coordinates": [ 16.6061708, 49.1978661 ] } },
{ "type": "Feature", "properties": { "osm_id": "1711984395", "code": 2303, "fclass": "cafe", "name": "Cafe Bar Afrei" }, "geometry": { "type": "Point", "coordinates": [ 16.6069771, 49.193726 ] } },
{ "type": "Feature", "properties": { "osm_id": "2201427185", "code": 2301, "fclass": "restaurant", "name": "ZamÄ›stnaneckĂˇ jĂ­delna FEKT" }, "geometry": { "type": "Point", "coordinates": [ 16.5755518, 49.2260405 ] } },
{ "type": "Feature", "properties": { "osm_id": "1613156425", "code": 2301, "fclass": "restaurant", "name": "MoravanskĂˇ rychta" }, "geometry": { "type": "Point", "coordinates": [ 16.5763483, 49.1453688 ] } },
{ "type": "Feature", "properties": { "osm_id": "3165742978", "code": 2305, "fclass": "bar", "name": "Malej Velkej Bar" }, "geometry": { "type": "Point", "coordinates": [ 16.6084283, 49.1963007 ] } },
{ "type": "Feature", "properties": { "osm_id": "3446238964", "code": 2301, "fclass": "restaurant", "name": "PĂˇlavskĂ˝ Ĺˇenk" }, "geometry": { "type": "Point", "coordinates": [ 16.658512, 49.206238 ] } },
{ "type": "Feature", "properties": { "osm_id": "1614264177", "code": 2301, "fclass": "restaurant", "name": "HospĹŻdka Diana" }, "geometry": { "type": "Point", "coordinates": [ 16.596465, 49.2061533 ] } },
{ "type": "Feature", "properties": { "osm_id": "2834334001", "code": 2301, "fclass": "restaurant", "name": "Grill bar & pizzeria u KalvodĹŻ" }, "geometry": { "type": "Point", "coordinates": [ 16.5721321, 49.288318 ] } },
{ "type": "Feature", "properties": { "osm_id": "3498298188", "code": 2301, "fclass": "restaurant", "name": "Bistro Miluj brambor" }, "geometry": { "type": "Point", "coordinates": [ 16.6091183, 49.1971422 ] } },
{ "type": "Feature", "properties": { "osm_id": "3384075879", "code": 2303, "fclass": "cafe", "name": "DÄ›tskĂ˝ kabinet" }, "geometry": { "type": "Point", "coordinates": [ 16.6124048, 49.1957055 ] } },
{ "type": "Feature", "properties": { "osm_id": "1614635073", "code": 2303, "fclass": "cafe", "name": "Goldenhair" }, "geometry": { "type": "Point", "coordinates": [ 16.599745, 49.2033051 ] } },
{ "type": "Feature", "properties": { "osm_id": "3384075882", "code": 2301, "fclass": "restaurant", "name": "Charlie's" }, "geometry": { "type": "Point", "coordinates": [ 16.6108009, 49.1952471 ] } },
{ "type": "Feature", "properties": { "osm_id": "519321828", "code": 2301, "fclass": "restaurant", "name": "KozĂˇk" }, "geometry": { "type": "Point", "coordinates": [ 16.5742591, 49.2139042 ] } },
{ "type": "Feature", "properties": { "osm_id": "3384075885", "code": 2305, "fclass": "bar", "name": "Sky Ice Bar" }, "geometry": { "type": "Point", "coordinates": [ 16.6099962, 49.1952235 ] } },
{ "type": "Feature", "properties": { "osm_id": "3498313138", "code": 2305, "fclass": "bar", "name": "Juice Bar" }, "geometry": { "type": "Point", "coordinates": [ 16.6098867, 49.195896 ] } },
{ "type": "Feature", "properties": { "osm_id": "519326004", "code": 2301, "fclass": "restaurant", "name": "Borgo Agnese" }, "geometry": { "type": "Point", "coordinates": [ 16.6015512, 49.1915338 ] } },
{ "type": "Feature", "properties": { "osm_id": "3498313140", "code": 2301, "fclass": "restaurant", "name": "Parodie" }, "geometry": { "type": "Point", "coordinates": [ 16.6117133, 49.1959802 ] } },
{ "type": "Feature", "properties": { "osm_id": "3384077112", "code": 2301, "fclass": "restaurant", "name": "AsijskĂ© Bistro QTTS" }, "geometry": { "type": "Point", "coordinates": [ 16.6259272, 49.2007102 ] } },
{ "type": "Feature", "properties": { "osm_id": "3384077116", "code": 2301, "fclass": "restaurant", "name": "AsijskĂ© Bistro Sen" }, "geometry": { "type": "Point", "coordinates": [ 16.6138144, 49.1948694 ] } },
{ "type": "Feature", "properties": { "osm_id": "1614708404", "code": 2303, "fclass": "cafe", "name": "Santiago" }, "geometry": { "type": "Point", "coordinates": [ 16.6015992, 49.2000844 ] } },
{ "type": "Feature", "properties": { "osm_id": "944527181", "code": 2303, "fclass": "cafe", "name": "ÄŚajovna StarĂ˝ dvĹŻr" }, "geometry": { "type": "Point", "coordinates": [ 16.5951939, 49.1900466 ] } },
{ "type": "Feature", "properties": { "osm_id": "3384102888", "code": 2301, "fclass": "restaurant", "name": "Na KnoflĂ­ku" }, "geometry": { "type": "Point", "coordinates": [ 16.6088665, 49.1961573 ] } },
{ "type": "Feature", "properties": { "osm_id": "944527185", "code": 2301, "fclass": "restaurant", "name": "AvatĂˇr" }, "geometry": { "type": "Point", "coordinates": [ 16.5952396, 49.1901907 ] } },
{ "type": "Feature", "properties": { "osm_id": "682400875", "code": 2303, "fclass": "cafe", "name": "ÄŚajovna Inaris" }, "geometry": { "type": "Point", "coordinates": [ 16.6023169, 49.2106352 ] } },
{ "type": "Feature", "properties": { "osm_id": "1614708473", "code": 2301, "fclass": "restaurant", "name": "KupĂ©" }, "geometry": { "type": "Point", "coordinates": [ 16.6003261, 49.2009474 ] } },
{ "type": "Feature", "properties": { "osm_id": "4032402340", "code": 2303, "fclass": "cafe", "name": "Punkt" }, "geometry": { "type": "Point", "coordinates": [ 16.6020484, 49.2062058 ] } },
{ "type": "Feature", "properties": { "osm_id": "3714850378", "code": 2301, "fclass": "restaurant", "name": "Burger Inn" }, "geometry": { "type": "Point", "coordinates": [ 16.608884, 49.1962362 ] } },
{ "type": "Feature", "properties": { "osm_id": "1713967399", "code": 2305, "fclass": "bar", "name": "Paradox" }, "geometry": { "type": "Point", "coordinates": [ 16.5939567, 49.1879683 ] } },
{ "type": "Feature", "properties": { "osm_id": "3384128511", "code": 2303, "fclass": "cafe", "name": "MINACH" }, "geometry": { "type": "Point", "coordinates": [ 16.6101079, 49.1947523 ] } },
{ "type": "Feature", "properties": { "osm_id": "3384128512", "code": 2303, "fclass": "cafe", "name": "RĹŻĹľovĂˇ slepiÄŤka" }, "geometry": { "type": "Point", "coordinates": [ 16.6105393, 49.1942589 ] } },
{ "type": "Feature", "properties": { "osm_id": "3242996045", "code": 2301, "fclass": "restaurant", "name": "JĂ­delna K2" }, "geometry": { "type": "Point", "coordinates": [ 16.6247197, 49.1991914 ] } },
{ "type": "Feature", "properties": { "osm_id": "3242996046", "code": 2301, "fclass": "restaurant", "name": "JĂ­delna Ĺ indelĂˇĹ™ a Syn" }, "geometry": { "type": "Point", "coordinates": [ 16.6241374, 49.199069 ] } },
{ "type": "Feature", "properties": { "osm_id": "3498332579", "code": 2305, "fclass": "bar", "name": "VinnĂ˝ sklĂ­pek Vinarium" }, "geometry": { "type": "Point", "coordinates": [ 16.6065878, 49.1921894 ] } },
{ "type": "Feature", "properties": { "osm_id": "3384130449", "code": 2303, "fclass": "cafe", "name": "CafĂ© Placzek" }, "geometry": { "type": "Point", "coordinates": [ 16.6108044, 49.1941189 ] } },
{ "type": "Feature", "properties": { "osm_id": "3243017872", "code": 2301, "fclass": "restaurant", "name": "Annapurna" }, "geometry": { "type": "Point", "coordinates": [ 16.6122453, 49.1922579 ] } },
{ "type": "Feature", "properties": { "osm_id": "3384132519", "code": 2305, "fclass": "bar", "name": "VinotĂ©ka U TĹ™Ă­ knĂ­Ĺľat" }, "geometry": { "type": "Point", "coordinates": [ 16.610491, 49.1943631 ] } },
{ "type": "Feature", "properties": { "osm_id": "3243017874", "code": 2301, "fclass": "restaurant", "name": "Empire Grill" }, "geometry": { "type": "Point", "coordinates": [ 16.6124547, 49.1924519 ] } },
{ "type": "Feature", "properties": { "osm_id": "521780958", "code": 2301, "fclass": "restaurant", "name": "Chaloupka" }, "geometry": { "type": "Point", "coordinates": [ 16.7179978, 49.1670164 ] } },
{ "type": "Feature", "properties": { "osm_id": "3243017875", "code": 2303, "fclass": "cafe", "name": "CaffĂ© Dieci" }, "geometry": { "type": "Point", "coordinates": [ 16.6125704, 49.1925551 ] } },
{ "type": "Feature", "properties": { "osm_id": "3243017876", "code": 2303, "fclass": "cafe", "name": "CaffĂ© MĹau" }, "geometry": { "type": "Point", "coordinates": [ 16.6119233, 49.1934837 ] } },
{ "type": "Feature", "properties": { "osm_id": "296765154", "code": 2301, "fclass": "restaurant", "name": "SvatovavĹ™ineckĂ˝ dvĹŻr (Tukan)" }, "geometry": { "type": "Point", "coordinates": [ 16.5812906, 49.2515401 ] } },
{ "type": "Feature", "properties": { "osm_id": "3243515546", "code": 2305, "fclass": "bar", "name": "Aloha" }, "geometry": { "type": "Point", "coordinates": [ 16.6095883, 49.1962989 ] } },
{ "type": "Feature", "properties": { "osm_id": "3498341543", "code": 2303, "fclass": "cafe", "name": "ÄŚajovna Sahara" }, "geometry": { "type": "Point", "coordinates": [ 16.6127055, 49.1944803 ] } },
{ "type": "Feature", "properties": { "osm_id": "3384144584", "code": 2303, "fclass": "cafe", "name": "Caffe Casa Mia" }, "geometry": { "type": "Point", "coordinates": [ 16.6137066, 49.1896894 ] } },
{ "type": "Feature", "properties": { "osm_id": "4408027593", "code": 2301, "fclass": "restaurant", "name": "Pizzeria Mare" }, "geometry": { "type": "Point", "coordinates": [ 16.6607946, 49.205144 ] } },
{ "type": "Feature", "properties": { "osm_id": "3384148466", "code": 2303, "fclass": "cafe", "name": "Coffeeshop Company" }, "geometry": { "type": "Point", "coordinates": [ 16.6068924, 49.188024 ] } },
{ "type": "Feature", "properties": { "osm_id": "3243712281", "code": 2305, "fclass": "bar", "name": "Sportbar Bet90" }, "geometry": { "type": "Point", "coordinates": [ 16.6063085, 49.2038854 ] } },
{ "type": "Feature", "properties": { "osm_id": "3243712287", "code": 2301, "fclass": "restaurant", "name": "OĂˇza" }, "geometry": { "type": "Point", "coordinates": [ 16.6074163, 49.2008833 ] } },
{ "type": "Feature", "properties": { "osm_id": "3243712288", "code": 2305, "fclass": "bar", "name": "EL.KO" }, "geometry": { "type": "Point", "coordinates": [ 16.6087148, 49.2002393 ] } },
{ "type": "Feature", "properties": { "osm_id": "3127661047", "code": 2301, "fclass": "restaurant", "name": "Rebio Park" }, "geometry": { "type": "Point", "coordinates": [ 16.5757761, 49.2285352 ] } },
{ "type": "Feature", "properties": { "osm_id": "1770242043", "code": 2307, "fclass": "biergarten", "name": null }, "geometry": { "type": "Point", "coordinates": [ 16.592567, 49.237319 ] } },
{ "type": "Feature", "properties": { "osm_id": "3243712299", "code": 2305, "fclass": "bar", "name": "Sportbar" }, "geometry": { "type": "Point", "coordinates": [ 16.62072, 49.2033575 ] } },
{ "type": "Feature", "properties": { "osm_id": "3384153279", "code": 2301, "fclass": "restaurant", "name": "Bogota" }, "geometry": { "type": "Point", "coordinates": [ 16.6088437, 49.1893283 ] } },
{ "type": "Feature", "properties": { "osm_id": "3384153280", "code": 2301, "fclass": "restaurant", "name": "Chicago" }, "geometry": { "type": "Point", "coordinates": [ 16.6085581, 49.1889058 ] } },
{ "type": "Feature", "properties": { "osm_id": "2425239670", "code": 2301, "fclass": "restaurant", "name": "U Ĺ afrĂˇnkĹŻ" }, "geometry": { "type": "Point", "coordinates": [ 16.6383469, 49.1881449 ] } },
{ "type": "Feature", "properties": { "osm_id": "1094624871", "code": 2301, "fclass": "restaurant", "name": "Olymp" }, "geometry": { "type": "Point", "coordinates": [ 16.6189657, 49.2067572 ] } },
{ "type": "Feature", "properties": { "osm_id": "83483340", "code": 2303, "fclass": "cafe", "name": "Morgal" }, "geometry": { "type": "Point", "coordinates": [ 16.6083609, 49.1978992 ] } },
{ "type": "Feature", "properties": { "osm_id": "2916428481", "code": 2303, "fclass": "cafe", "name": "KlokĂˇnek" }, "geometry": { "type": "Point", "coordinates": [ 16.624156, 49.2077225 ] } },
{ "type": "Feature", "properties": { "osm_id": "897977683", "code": 2301, "fclass": "restaurant", "name": "RosniÄŤka" }, "geometry": { "type": "Point", "coordinates": [ 16.5752375, 49.2064299 ] } },
{ "type": "Feature", "properties": { "osm_id": "3243778863", "code": 2303, "fclass": "cafe", "name": "TulipĂˇn" }, "geometry": { "type": "Point", "coordinates": [ 16.6029653, 49.1923179 ] } },
{ "type": "Feature", "properties": { "osm_id": "2916440773", "code": 2301, "fclass": "restaurant", "name": "Restaurace Corner" }, "geometry": { "type": "Point", "coordinates": [ 16.6238242, 49.2047756 ] } },
{ "type": "Feature", "properties": { "osm_id": "4231856589", "code": 2305, "fclass": "bar", "name": "Ĺ tefka" }, "geometry": { "type": "Point", "coordinates": [ 16.5997902, 49.2158698 ] } },
{ "type": "Feature", "properties": { "osm_id": "1240393108", "code": 2301, "fclass": "restaurant", "name": "Na Ĺ tanĂ˝Ĺ™i" }, "geometry": { "type": "Point", "coordinates": [ 16.6472761, 49.2269309 ] } },
{ "type": "Feature", "properties": { "osm_id": "1983566404", "code": 2301, "fclass": "restaurant", "name": "Menza VeveĹ™Ă­" }, "geometry": { "type": "Point", "coordinates": [ 16.5930332, 49.2086625 ] } },
{ "type": "Feature", "properties": { "osm_id": "2916495567", "code": 2301, "fclass": "restaurant", "name": "Bistro na OsmiÄŤce" }, "geometry": { "type": "Point", "coordinates": [ 16.6195496, 49.2030082 ] } },
{ "type": "Feature", "properties": { "osm_id": "1094978372", "code": 2301, "fclass": "restaurant", "name": "ToulavĂ˝ kocour" }, "geometry": { "type": "Point", "coordinates": [ 16.6060611, 49.1916589 ] } },
{ "type": "Feature", "properties": { "osm_id": "3243778869", "code": 2305, "fclass": "bar", "name": "Don Pintxos" }, "geometry": { "type": "Point", "coordinates": [ 16.6065882, 49.1942287 ] } },
{ "type": "Feature", "properties": { "osm_id": "2916495576", "code": 2305, "fclass": "bar", "name": "Simpson Bar" }, "geometry": { "type": "Point", "coordinates": [ 16.6188838, 49.2027127 ] } },
{ "type": "Feature", "properties": { "osm_id": "3716665533", "code": 2305, "fclass": "bar", "name": "Ĺ˝Ă­znivĂˇ vinotĂ©ka" }, "geometry": { "type": "Point", "coordinates": [ 16.601141, 49.1971288 ] } },
{ "type": "Feature", "properties": { "osm_id": "3243778872", "code": 2303, "fclass": "cafe", "name": "Chajovna" }, "geometry": { "type": "Point", "coordinates": [ 16.6074371, 49.1938326 ] } },
{ "type": "Feature", "properties": { "osm_id": "3716665534", "code": 2305, "fclass": "bar", "name": "Club Mezzanine" }, "geometry": { "type": "Point", "coordinates": [ 16.6006274, 49.1967397 ] } },
{ "type": "Feature", "properties": { "osm_id": "2916510935", "code": 2301, "fclass": "restaurant", "name": "Na MĹŻstku" }, "geometry": { "type": "Point", "coordinates": [ 16.6135929, 49.2010372 ] } },
{ "type": "Feature", "properties": { "osm_id": "3716721286", "code": 2303, "fclass": "cafe", "name": "CafĂ© u Mahena" }, "geometry": { "type": "Point", "coordinates": [ 16.6095011, 49.1952499 ] } },
{ "type": "Feature", "properties": { "osm_id": "3716721288", "code": 2305, "fclass": "bar", "name": "SpodnĂ­ Bar" }, "geometry": { "type": "Point", "coordinates": [ 16.6098029, 49.1943428 ] } },
{ "type": "Feature", "properties": { "osm_id": "3243790115", "code": 2305, "fclass": "bar", "name": "Club Tabarin" }, "geometry": { "type": "Point", "coordinates": [ 16.6142215, 49.1948429 ] } },
{ "type": "Feature", "properties": { "osm_id": "3716728867", "code": 2303, "fclass": "cafe", "name": "Nefertiti" }, "geometry": { "type": "Point", "coordinates": [ 16.6081158, 49.1941991 ] } },
{ "type": "Feature", "properties": { "osm_id": "1770369467", "code": 2307, "fclass": "biergarten", "name": null }, "geometry": { "type": "Point", "coordinates": [ 16.5924801, 49.2583131 ] } },
{ "type": "Feature", "properties": { "osm_id": "2916528153", "code": 2303, "fclass": "cafe", "name": "Scala" }, "geometry": { "type": "Point", "coordinates": [ 16.6082515, 49.1972612 ] } },
{ "type": "Feature", "properties": { "osm_id": "2468815949", "code": 2303, "fclass": "cafe", "name": "CukrĂˇrna" }, "geometry": { "type": "Point", "coordinates": [ 16.5097952, 49.2546199 ] } },
{ "type": "Feature", "properties": { "osm_id": "528595210", "code": 2303, "fclass": "cafe", "name": "CukrĂˇrna u StojanoviÄŤĹŻ" }, "geometry": { "type": "Point", "coordinates": [ 16.6225166, 49.2552029 ] } },
{ "type": "Feature", "properties": { "osm_id": "3449466038", "code": 2303, "fclass": "cafe", "name": "Tripoli Kids" }, "geometry": { "type": "Point", "coordinates": [ 16.6109163, 49.1927791 ] } },
{ "type": "Feature", "properties": { "osm_id": "3600847337", "code": 2301, "fclass": "restaurant", "name": "U pantĂˇtĹŻ" }, "geometry": { "type": "Point", "coordinates": [ 16.651098, 49.1929302 ] } },
{ "type": "Feature", "properties": { "osm_id": "3449466039", "code": 2305, "fclass": "bar", "name": "Strip Bar Siluette" }, "geometry": { "type": "Point", "coordinates": [ 16.610573, 49.1926949 ] } },
{ "type": "Feature", "properties": { "osm_id": "2468815955", "code": 2301, "fclass": "restaurant", "name": "U Ĺ evÄŤĂ­kĹŻ" }, "geometry": { "type": "Point", "coordinates": [ 16.5114899, 49.2551971 ] } },
{ "type": "Feature", "properties": { "osm_id": "1626527714", "code": 2301, "fclass": "restaurant", "name": "Menza PurkyĹova" }, "geometry": { "type": "Point", "coordinates": [ 16.5825917, 49.2244619 ] } },
{ "type": "Feature", "properties": { "osm_id": "296811386", "code": 2301, "fclass": "restaurant", "name": "Restaurace ZemskĂ˝ DĹŻm" }, "geometry": { "type": "Point", "coordinates": [ 16.6050321, 49.1992447 ] } },
{ "type": "Feature", "properties": { "osm_id": "4576184525", "code": 2301, "fclass": "restaurant", "name": "U MikeĹˇĹŻ" }, "geometry": { "type": "Point", "coordinates": [ 16.623497, 49.1757093 ] } },
{ "type": "Feature", "properties": { "osm_id": "2916528158", "code": 2301, "fclass": "restaurant", "name": "Forky's Bistro" }, "geometry": { "type": "Point", "coordinates": [ 16.6094358, 49.1968233 ] } },
{ "type": "Feature", "properties": { "osm_id": "1835649099", "code": 2301, "fclass": "restaurant", "name": "Na Kytnerce" }, "geometry": { "type": "Point", "coordinates": [ 16.574072, 49.2419827 ] } },
{ "type": "Feature", "properties": { "osm_id": "2916528159", "code": 2305, "fclass": "bar", "name": "Cubana" }, "geometry": { "type": "Point", "coordinates": [ 16.6098066, 49.1969246 ] } },
{ "type": "Feature", "properties": { "osm_id": "2916528160", "code": 2301, "fclass": "restaurant", "name": "Umami" }, "geometry": { "type": "Point", "coordinates": [ 16.6099227, 49.1969661 ] } },
{ "type": "Feature", "properties": { "osm_id": "4463979046", "code": 2301, "fclass": "restaurant", "name": "Pivnice DivadelnĂ­ 3" }, "geometry": { "type": "Point", "coordinates": [ 16.6140214, 49.1950609 ] } },
{ "type": "Feature", "properties": { "osm_id": "3717395093", "code": 2303, "fclass": "cafe", "name": "Le Capital" }, "geometry": { "type": "Point", "coordinates": [ 16.5727964, 49.2333696 ] } },
{ "type": "Feature", "properties": { "osm_id": "4576184530", "code": 2301, "fclass": "restaurant", "name": "Pizzeria La Fiesta" }, "geometry": { "type": "Point", "coordinates": [ 16.6192586, 49.1823794 ] } },
{ "type": "Feature", "properties": { "osm_id": "3718151207", "code": 2303, "fclass": "cafe", "name": "No Feet" }, "geometry": { "type": "Point", "coordinates": [ 16.5867322, 49.1950906 ] } },
{ "type": "Feature", "properties": { "osm_id": "4576185489", "code": 2301, "fclass": "restaurant", "name": null }, "geometry": { "type": "Point", "coordinates": [ 16.6212055, 49.1796235 ] } },
{ "type": "Feature", "properties": { "osm_id": "2916588757", "code": 2305, "fclass": "bar", "name": "VinĂˇrna Freya" }, "geometry": { "type": "Point", "coordinates": [ 16.6214175, 49.2050096 ] } },
{ "type": "Feature", "properties": { "osm_id": "3718202279", "code": 2305, "fclass": "bar", "name": "Jim Beam Bar" }, "geometry": { "type": "Point", "coordinates": [ 16.602064, 49.1999237 ] } },
{ "type": "Feature", "properties": { "osm_id": "1631371485", "code": 2301, "fclass": "restaurant", "name": "Pizzeria ZI' Teresa" }, "geometry": { "type": "Point", "coordinates": [ 16.5048364, 49.2161721 ] } },
{ "type": "Feature", "properties": { "osm_id": "3719751604", "code": 2301, "fclass": "restaurant", "name": "PohostinstvĂ­ Pontis" }, "geometry": { "type": "Point", "coordinates": [ 16.6118329, 49.2032976 ] } },
{ "type": "Feature", "properties": { "osm_id": "3719772294", "code": 2303, "fclass": "cafe", "name": "Brumli Caffe" }, "geometry": { "type": "Point", "coordinates": [ 16.6189193, 49.2028121 ] } },
{ "type": "Feature", "properties": { "osm_id": "945418374", "code": 2303, "fclass": "cafe", "name": "Karel Never Sleeps" }, "geometry": { "type": "Point", "coordinates": [ 16.6023385, 49.1982461 ] } },
{ "type": "Feature", "properties": { "osm_id": "3719788542", "code": 2305, "fclass": "bar", "name": "Bar 007" }, "geometry": { "type": "Point", "coordinates": [ 16.6155803, 49.1987142 ] } },
{ "type": "Feature", "properties": { "osm_id": "3719788544", "code": 2305, "fclass": "bar", "name": "Bar 999" }, "geometry": { "type": "Point", "coordinates": [ 16.6180237, 49.1989701 ] } },
{ "type": "Feature", "properties": { "osm_id": "4233327292", "code": 2301, "fclass": "restaurant", "name": "KrĂˇlovskĂˇ cesta" }, "geometry": { "type": "Point", "coordinates": [ 16.5990676, 49.2197868 ] } },
{ "type": "Feature", "properties": { "osm_id": "3719788550", "code": 2301, "fclass": "restaurant", "name": "StarĂˇ Tkalcovna" }, "geometry": { "type": "Point", "coordinates": [ 16.6202942, 49.1995782 ] } },
{ "type": "Feature", "properties": { "osm_id": "1985007678", "code": 2301, "fclass": "restaurant", "name": "Pizza Nostra" }, "geometry": { "type": "Point", "coordinates": [ 16.5941772, 49.2105023 ] } },
{ "type": "Feature", "properties": { "osm_id": "451558235", "code": 2301, "fclass": "restaurant", "name": "Severka" }, "geometry": { "type": "Point", "coordinates": [ 16.5979152, 49.2076556 ] } },
{ "type": "Feature", "properties": { "osm_id": "1633662278", "code": 2305, "fclass": "bar", "name": "Club Cohiba" }, "geometry": { "type": "Point", "coordinates": [ 16.6043615, 49.200603 ] } },
{ "type": "Feature", "properties": { "osm_id": "2770900410", "code": 2303, "fclass": "cafe", "name": "CukrĂˇrna Aida" }, "geometry": { "type": "Point", "coordinates": [ 16.5537443, 49.2182966 ] } },
{ "type": "Feature", "properties": { "osm_id": "1717440451", "code": 2301, "fclass": "restaurant", "name": "Svejk restaurant & penzion" }, "geometry": { "type": "Point", "coordinates": [ 16.5789432, 49.169082 ] } },
{ "type": "Feature", "properties": { "osm_id": "2530736812", "code": 2305, "fclass": "bar", "name": "VinotĂ©ka Livino" }, "geometry": { "type": "Point", "coordinates": [ 16.5003533, 49.2165495 ] } },
{ "type": "Feature", "properties": { "osm_id": "2842010767", "code": 2305, "fclass": "bar", "name": "Hangover" }, "geometry": { "type": "Point", "coordinates": [ 16.5816431, 49.2227576 ] } },
{ "type": "Feature", "properties": { "osm_id": "1717458086", "code": 2301, "fclass": "restaurant", "name": "Okruh Pub" }, "geometry": { "type": "Point", "coordinates": [ 16.5624013, 49.1804437 ] } },
{ "type": "Feature", "properties": { "osm_id": "2770900443", "code": 2301, "fclass": "restaurant", "name": "Tora" }, "geometry": { "type": "Point", "coordinates": [ 16.6055379, 49.1966037 ] } },
{ "type": "Feature", "properties": { "osm_id": "4752457299", "code": 2303, "fclass": "cafe", "name": "Sisters' CafĂ©&Bistro" }, "geometry": { "type": "Point", "coordinates": [ 16.4156657, 49.2064801 ] } },
{ "type": "Feature", "properties": { "osm_id": "3719872833", "code": 2305, "fclass": "bar", "name": "H46" }, "geometry": { "type": "Point", "coordinates": [ 16.5994968, 49.1894301 ] } },
{ "type": "Feature", "properties": { "osm_id": "3719872834", "code": 2305, "fclass": "bar", "name": "Black Diamond" }, "geometry": { "type": "Point", "coordinates": [ 16.5995217, 49.1897596 ] } },
{ "type": "Feature", "properties": { "osm_id": "3719872935", "code": 2301, "fclass": "restaurant", "name": "Kometa Pub" }, "geometry": { "type": "Point", "coordinates": [ 16.6020591, 49.1849216 ] } },
{ "type": "Feature", "properties": { "osm_id": "3719872936", "code": 2301, "fclass": "restaurant", "name": "Sport Bar Arena" }, "geometry": { "type": "Point", "coordinates": [ 16.6046742, 49.1890006 ] } },
{ "type": "Feature", "properties": { "osm_id": "3719872937", "code": 2305, "fclass": "bar", "name": "Dave's Club" }, "geometry": { "type": "Point", "coordinates": [ 16.6056344, 49.1892477 ] } },
{ "type": "Feature", "properties": { "osm_id": "2770900506", "code": 2301, "fclass": "restaurant", "name": "Golden Sun" }, "geometry": { "type": "Point", "coordinates": [ 16.6066639, 49.1945243 ] } },
{ "type": "Feature", "properties": { "osm_id": "1634148105", "code": 2301, "fclass": "restaurant", "name": "Oaza" }, "geometry": { "type": "Point", "coordinates": [ 16.6021259, 49.2000342 ] } },
{ "type": "Feature", "properties": { "osm_id": "2918023544", "code": 2301, "fclass": "restaurant", "name": "Tenis Pub LuĹľĂˇnky" }, "geometry": { "type": "Point", "coordinates": [ 16.6111557, 49.2053741 ] } },
{ "type": "Feature", "properties": { "osm_id": "3719872939", "code": 2305, "fclass": "bar", "name": "Klenotnice vĂ­n" }, "geometry": { "type": "Point", "coordinates": [ 16.6024936, 49.1889392 ] } },
{ "type": "Feature", "properties": { "osm_id": "2918023546", "code": 2301, "fclass": "restaurant", "name": "Kings Head" }, "geometry": { "type": "Point", "coordinates": [ 16.6109277, 49.2036444 ] } },
{ "type": "Feature", "properties": { "osm_id": "3719872940", "code": 2301, "fclass": "restaurant", "name": "U Putny" }, "geometry": { "type": "Point", "coordinates": [ 16.5964183, 49.1888691 ] } },
{ "type": "Feature", "properties": { "osm_id": "1634165546", "code": 2303, "fclass": "cafe", "name": "AkademickĂˇ kavĂˇrna" }, "geometry": { "type": "Point", "coordinates": [ 16.599277, 49.1998138 ] } },
{ "type": "Feature", "properties": { "osm_id": "3719872942", "code": 2301, "fclass": "restaurant", "name": "Wings" }, "geometry": { "type": "Point", "coordinates": [ 16.597671, 49.1884852 ] } },
{ "type": "Feature", "properties": { "osm_id": "1634167381", "code": 2301, "fclass": "restaurant", "name": "Formanka" }, "geometry": { "type": "Point", "coordinates": [ 16.6062954, 49.2005258 ] } },
{ "type": "Feature", "properties": { "osm_id": "2918023551", "code": 2301, "fclass": "restaurant", "name": "Sabaidy" }, "geometry": { "type": "Point", "coordinates": [ 16.6103886, 49.2028435 ] } },
{ "type": "Feature", "properties": { "osm_id": "3719872943", "code": 2301, "fclass": "restaurant", "name": "Dragon III" }, "geometry": { "type": "Point", "coordinates": [ 16.5941573, 49.1891531 ] } },
{ "type": "Feature", "properties": { "osm_id": "2918036398", "code": 2301, "fclass": "restaurant", "name": "Boulevard" }, "geometry": { "type": "Point", "coordinates": [ 16.6085164, 49.2010752 ] } },
{ "type": "Feature", "properties": { "osm_id": "2918036399", "code": 2301, "fclass": "restaurant", "name": "NekoneÄŤno" }, "geometry": { "type": "Point", "coordinates": [ 16.6086747, 49.2014503 ] } },
{ "type": "Feature", "properties": { "osm_id": "3389050475", "code": 2301, "fclass": "restaurant", "name": "TÄ›snÄ› Vedle" }, "geometry": { "type": "Point", "coordinates": [ 16.6139029, 49.2005983 ] } },
{ "type": "Feature", "properties": { "osm_id": "3719886350", "code": 2301, "fclass": "restaurant", "name": "La Peda" }, "geometry": { "type": "Point", "coordinates": [ 16.5939105, 49.1883239 ] } },
{ "type": "Feature", "properties": { "osm_id": "3719886351", "code": 2305, "fclass": "bar", "name": "Bar U Stromu" }, "geometry": { "type": "Point", "coordinates": [ 16.5939776, 49.1882853 ] } },
{ "type": "Feature", "properties": { "osm_id": "3389080910", "code": 2303, "fclass": "cafe", "name": "KavĂˇrna U Raka" }, "geometry": { "type": "Point", "coordinates": [ 16.6093512, 49.1938083 ] } },
{ "type": "Feature", "properties": { "osm_id": "4035690635", "code": 2305, "fclass": "bar", "name": "Kryt" }, "geometry": { "type": "Point", "coordinates": [ 16.6143556, 49.1911606 ] } },
{ "type": "Feature", "properties": { "osm_id": "3389127496", "code": 2301, "fclass": "restaurant", "name": "SunRice" }, "geometry": { "type": "Point", "coordinates": [ 16.6103154, 49.192236 ] } },
{ "type": "Feature", "properties": { "osm_id": "452212733", "code": 2301, "fclass": "restaurant", "name": "Magistr" }, "geometry": { "type": "Point", "coordinates": [ 16.6001082, 49.2096255 ] } },
{ "type": "Feature", "properties": { "osm_id": "3505137763", "code": 2303, "fclass": "cafe", "name": "Tutti Frutti" }, "geometry": { "type": "Point", "coordinates": [ 16.5939745, 49.190579 ] } },
{ "type": "Feature", "properties": { "osm_id": "3719889318", "code": 2305, "fclass": "bar", "name": "Reisy" }, "geometry": { "type": "Point", "coordinates": [ 16.6000826, 49.2156314 ] } },
{ "type": "Feature", "properties": { "osm_id": "452326805", "code": 2301, "fclass": "restaurant", "name": "U DĹ™evĂˇka" }, "geometry": { "type": "Point", "coordinates": [ 16.6009335, 49.2091127 ] } },
{ "type": "Feature", "properties": { "osm_id": "4287527637", "code": 2301, "fclass": "restaurant", "name": "ÄŚikoria" }, "geometry": { "type": "Point", "coordinates": [ 16.5818758, 49.2256921 ] } },
{ "type": "Feature", "properties": { "osm_id": "452326881", "code": 2305, "fclass": "bar", "name": "VinotĂ©ka U rybnĂ­ÄŤku" }, "geometry": { "type": "Point", "coordinates": [ 16.6028777, 49.2097058 ] } },
{ "type": "Feature", "properties": { "osm_id": "3505188495", "code": 2303, "fclass": "cafe", "name": "ÄŚajovna U ZelenĂ©ho LĂ­stku" }, "geometry": { "type": "Point", "coordinates": [ 16.6015273, 49.1983431 ] } },
{ "type": "Feature", "properties": { "osm_id": "452326911", "code": 2301, "fclass": "restaurant", "name": "Restaurace DivĂˇ BĂˇra" }, "geometry": { "type": "Point", "coordinates": [ 16.6026918, 49.210015 ] } },
{ "type": "Feature", "properties": { "osm_id": "1418101198", "code": 2305, "fclass": "bar", "name": "SklĂ­peÄŤek U PepĂ­na" }, "geometry": { "type": "Point", "coordinates": [ 16.5915696, 49.1991951 ] } },
{ "type": "Feature", "properties": { "osm_id": "2272977424", "code": 2305, "fclass": "bar", "name": "VinnĂ˝ bar Oberland" }, "geometry": { "type": "Point", "coordinates": [ 16.5730732, 49.2140139 ] } },
{ "type": "Feature", "properties": { "osm_id": "3719909983", "code": 2305, "fclass": "bar", "name": "vinotĂ©ka" }, "geometry": { "type": "Point", "coordinates": [ 16.5909443, 49.2128333 ] } },
{ "type": "Feature", "properties": { "osm_id": "3505204460", "code": 2303, "fclass": "cafe", "name": "Cafe AndÄ›l" }, "geometry": { "type": "Point", "coordinates": [ 16.5955701, 49.1995139 ] } },
{ "type": "Feature", "properties": { "osm_id": "3389155402", "code": 2303, "fclass": "cafe", "name": "Aida La Dolce Vita" }, "geometry": { "type": "Point", "coordinates": [ 16.6115439, 49.1917679 ] } },
{ "type": "Feature", "properties": { "osm_id": "3719917050", "code": 2301, "fclass": "restaurant", "name": "Pedro" }, "geometry": { "type": "Point", "coordinates": [ 16.5874507, 49.2100569 ] } },
{ "type": "Feature", "properties": { "osm_id": "452326984", "code": 2301, "fclass": "restaurant", "name": "Comodo" }, "geometry": { "type": "Point", "coordinates": [ 16.6020475, 49.2101534 ] } },
{ "type": "Feature", "properties": { "osm_id": "1719270770", "code": 2301, "fclass": "restaurant", "name": "Ĺ˝ebÄ›tĂ­nskĂ˝ dvĹŻr" }, "geometry": { "type": "Point", "coordinates": [ 16.48756, 49.2075578 ] } },
{ "type": "Feature", "properties": { "osm_id": "1636268886", "code": 2301, "fclass": "restaurant", "name": "Statyr bar" }, "geometry": { "type": "Point", "coordinates": [ 16.6194881, 49.2019215 ] } },
{ "type": "Feature", "properties": { "osm_id": "2078672745", "code": 2301, "fclass": "restaurant", "name": "jĂ­delna SSPOS Brno" }, "geometry": { "type": "Point", "coordinates": [ 16.5549735, 49.2077672 ] } },
{ "type": "Feature", "properties": { "osm_id": "3505216511", "code": 2305, "fclass": "bar", "name": "Wino Predo" }, "geometry": { "type": "Point", "coordinates": [ 16.594465, 49.2002727 ] } },
{ "type": "Feature", "properties": { "osm_id": "3505216513", "code": 2305, "fclass": "bar", "name": "ModrĂ© Hory" }, "geometry": { "type": "Point", "coordinates": [ 16.5960543, 49.2006031 ] } },
{ "type": "Feature", "properties": { "osm_id": "3719917054", "code": 2301, "fclass": "restaurant", "name": "SONO" }, "geometry": { "type": "Point", "coordinates": [ 16.588812, 49.2094778 ] } },
{ "type": "Feature", "properties": { "osm_id": "1773152792", "code": 2301, "fclass": "restaurant", "name": "U NedbĂˇlkĹŻ" }, "geometry": { "type": "Point", "coordinates": [ 16.4127081, 49.2092163 ] } },
{ "type": "Feature", "properties": { "osm_id": "3719917055", "code": 2301, "fclass": "restaurant", "name": "SamoobsluĹľnĂˇ restaurace" }, "geometry": { "type": "Point", "coordinates": [ 16.5932617, 49.2056367 ] } },
{ "type": "Feature", "properties": { "osm_id": "3389155409", "code": 2303, "fclass": "cafe", "name": "Costa Coffee" }, "geometry": { "type": "Point", "coordinates": [ 16.6122373, 49.1921638 ] } },
{ "type": "Feature", "properties": { "osm_id": "3505216519", "code": 2303, "fclass": "cafe", "name": "Cafe Aromatique" }, "geometry": { "type": "Point", "coordinates": [ 16.5967664, 49.2009107 ] } },
{ "type": "Feature", "properties": { "osm_id": "374215317", "code": 2301, "fclass": "restaurant", "name": "VinĂˇrna u KrĂˇlovny EliĹˇky" }, "geometry": { "type": "Point", "coordinates": [ 16.5939549, 49.1922246 ] } },
{ "type": "Feature", "properties": { "osm_id": "950717682", "code": 2301, "fclass": "restaurant", "name": "U Richarda" }, "geometry": { "type": "Point", "coordinates": [ 16.4839073, 49.2073769 ] } },
{ "type": "Feature", "properties": { "osm_id": "1360432279", "code": 2301, "fclass": "restaurant", "name": "Eurest" }, "geometry": { "type": "Point", "coordinates": [ 16.5981799, 49.1711776 ] } },
{ "type": "Feature", "properties": { "osm_id": "688912892", "code": 2301, "fclass": "restaurant", "name": "U BaĹĄĂˇka" }, "geometry": { "type": "Point", "coordinates": [ 16.6494546, 49.3026369 ] } },
{ "type": "Feature", "properties": { "osm_id": "3389764116", "code": 2303, "fclass": "cafe", "name": "Cyber cafĂ©" }, "geometry": { "type": "Point", "coordinates": [ 16.6065016, 49.1946283 ] } },
{ "type": "Feature", "properties": { "osm_id": "3249494210", "code": 2301, "fclass": "restaurant", "name": "Restaurace BetlĂ©m" }, "geometry": { "type": "Point", "coordinates": [ 16.6243522, 49.2167364 ] } },
{ "type": "Feature", "properties": { "osm_id": "1360432293", "code": 2301, "fclass": "restaurant", "name": "iq restaurant" }, "geometry": { "type": "Point", "coordinates": [ 16.6059264, 49.1809481 ] } },
{ "type": "Feature", "properties": { "osm_id": "3719950383", "code": 2303, "fclass": "cafe", "name": "Kafe na gauÄŤi" }, "geometry": { "type": "Point", "coordinates": [ 16.602724, 49.205847 ] } },
{ "type": "Feature", "properties": { "osm_id": "1360432303", "code": 2301, "fclass": "restaurant", "name": "Jedna BĂˇseĹ" }, "geometry": { "type": "Point", "coordinates": [ 16.5981143, 49.1718781 ] } },
{ "type": "Feature", "properties": { "osm_id": "3719987678", "code": 2305, "fclass": "bar", "name": "Whisky Bar Valevil" }, "geometry": { "type": "Point", "coordinates": [ 16.6059883, 49.1900762 ] } },
{ "type": "Feature", "properties": { "osm_id": "3719987679", "code": 2303, "fclass": "cafe", "name": "ZĂˇkoutĂ­" }, "geometry": { "type": "Point", "coordinates": [ 16.6054814, 49.1902165 ] } },
{ "type": "Feature", "properties": { "osm_id": "3389764120", "code": 2301, "fclass": "restaurant", "name": "PlzeĹka" }, "geometry": { "type": "Point", "coordinates": [ 16.6059242, 49.1948851 ] } },
{ "type": "Feature", "properties": { "osm_id": "3389764121", "code": 2301, "fclass": "restaurant", "name": "Siesta Lobby & Wine Restaurant" }, "geometry": { "type": "Point", "coordinates": [ 16.6057418, 49.1949464 ] } },
{ "type": "Feature", "properties": { "osm_id": "3719987681", "code": 2303, "fclass": "cafe", "name": "Paolo CaffĂ©" }, "geometry": { "type": "Point", "coordinates": [ 16.6051622, 49.1903286 ] } },
{ "type": "Feature", "properties": { "osm_id": "3389764122", "code": 2301, "fclass": "restaurant", "name": "Lucullus" }, "geometry": { "type": "Point", "coordinates": [ 16.6055084, 49.1948308 ] } },
{ "type": "Feature", "properties": { "osm_id": "3719987683", "code": 2303, "fclass": "cafe", "name": "KavĂˇrna Cyro" }, "geometry": { "type": "Point", "coordinates": [ 16.6030352, 49.19083 ] } },
{ "type": "Feature", "properties": { "osm_id": "2081263523", "code": 2301, "fclass": "restaurant", "name": "Gyropolis" }, "geometry": { "type": "Point", "coordinates": [ 16.6850723, 49.1775409 ] } },
{ "type": "Feature", "properties": { "osm_id": "3719987685", "code": 2301, "fclass": "restaurant", "name": "Ĺ ermĂ­Ĺ™skĂ˝ klub" }, "geometry": { "type": "Point", "coordinates": [ 16.6036736, 49.1918432 ] } },
{ "type": "Feature", "properties": { "osm_id": "3719987686", "code": 2305, "fclass": "bar", "name": "VinnĂ˝ Bar Na KopeÄŤnĂ©" }, "geometry": { "type": "Point", "coordinates": [ 16.6032686, 49.1919212 ] } },
{ "type": "Feature", "properties": { "osm_id": "2081263602", "code": 2301, "fclass": "restaurant", "name": "SlatinskĂ˝ Ĺˇenk" }, "geometry": { "type": "Point", "coordinates": [ 16.6852507, 49.1780231 ] } },
{ "type": "Feature", "properties": { "osm_id": "3250094384", "code": 2303, "fclass": "cafe", "name": "Air Cafe" }, "geometry": { "type": "Point", "coordinates": [ 16.6083536, 49.1919523 ] } },
{ "type": "Feature", "properties": { "osm_id": "1360945864", "code": 2307, "fclass": "biergarten", "name": "Sokec" }, "geometry": { "type": "Point", "coordinates": [ 16.6066023, 49.1294204 ] } },
{ "type": "Feature", "properties": { "osm_id": "2081263608", "code": 2303, "fclass": "cafe", "name": "CukrĂˇrna Kokoo" }, "geometry": { "type": "Point", "coordinates": [ 16.6842139, 49.1780504 ] } },
{ "type": "Feature", "properties": { "osm_id": "1360946031", "code": 2307, "fclass": "biergarten", "name": "cyklobar" }, "geometry": { "type": "Point", "coordinates": [ 16.624219, 49.1307119 ] } },
{ "type": "Feature", "properties": { "osm_id": "3135560649", "code": 2301, "fclass": "restaurant", "name": "Hostinec U SeminĂˇru" }, "geometry": { "type": "Point", "coordinates": [ 16.6060536, 49.2034679 ] } },
{ "type": "Feature", "properties": { "osm_id": "3720374322", "code": 2305, "fclass": "bar", "name": "Bar na Pio" }, "geometry": { "type": "Point", "coordinates": [ 16.6062137, 49.208391 ] } },
{ "type": "Feature", "properties": { "osm_id": "376316392", "code": 2307, "fclass": "biergarten", "name": null }, "geometry": { "type": "Point", "coordinates": [ 16.5927707, 49.190702 ] } },
{ "type": "Feature", "properties": { "osm_id": "377067487", "code": 2301, "fclass": "restaurant", "name": "Jolla" }, "geometry": { "type": "Point", "coordinates": [ 16.6431892, 49.1952047 ] } },
{ "type": "Feature", "properties": { "osm_id": "377071741", "code": 2303, "fclass": "cafe", "name": "CafĂ©cafĂ©" }, "geometry": { "type": "Point", "coordinates": [ 16.6447628, 49.1952897 ] } },
{ "type": "Feature", "properties": { "osm_id": "2613514192", "code": 2301, "fclass": "restaurant", "name": "KorzĂˇr" }, "geometry": { "type": "Point", "coordinates": [ 16.5842932, 49.2111279 ] } },
{ "type": "Feature", "properties": { "osm_id": "3390073052", "code": 2301, "fclass": "restaurant", "name": "Chuang Shi Ji" }, "geometry": { "type": "Point", "coordinates": [ 16.6110003, 49.1953934 ] } },
{ "type": "Feature", "properties": { "osm_id": "3721290988", "code": 2301, "fclass": "restaurant", "name": "DukĂˇt" }, "geometry": { "type": "Point", "coordinates": [ 16.6178263, 49.2320654 ] } },
{ "type": "Feature", "properties": { "osm_id": "1248902635", "code": 2301, "fclass": "restaurant", "name": "U Ĺ iĹˇky" }, "geometry": { "type": "Point", "coordinates": [ 16.5324729, 49.2249323 ] } },
{ "type": "Feature", "properties": { "osm_id": "3137210729", "code": 2303, "fclass": "cafe", "name": "CafĂ© & Bistro 4D" }, "geometry": { "type": "Point", "coordinates": [ 16.5335246, 49.2208108 ] } },
{ "type": "Feature", "properties": { "osm_id": "378321208", "code": 2301, "fclass": "restaurant", "name": "Za Sedmero" }, "geometry": { "type": "Point", "coordinates": [ 16.6306267, 49.2878523 ] } },
{ "type": "Feature", "properties": { "osm_id": "3137210732", "code": 2301, "fclass": "restaurant", "name": "Pizza Don Marco" }, "geometry": { "type": "Point", "coordinates": [ 16.4975638, 49.2177831 ] } },
{ "type": "Feature", "properties": { "osm_id": "4674341426", "code": 2303, "fclass": "cafe", "name": "PilĂˇt" }, "geometry": { "type": "Point", "coordinates": [ 16.6092594, 49.1913818 ] } },
{ "type": "Feature", "properties": { "osm_id": "1420244901", "code": 2305, "fclass": "bar", "name": "VinnĂˇ galerie" }, "geometry": { "type": "Point", "coordinates": [ 16.6108359, 49.2045351 ] } },
{ "type": "Feature", "properties": { "osm_id": "3137210734", "code": 2303, "fclass": "cafe", "name": "Viva la Vida" }, "geometry": { "type": "Point", "coordinates": [ 16.4974735, 49.2178792 ] } },
{ "type": "Feature", "properties": { "osm_id": "3721304323", "code": 2303, "fclass": "cafe", "name": "cukrĂˇrna" }, "geometry": { "type": "Point", "coordinates": [ 16.6730478, 49.2460106 ] } },
{ "type": "Feature", "properties": { "osm_id": "3390093888", "code": 2301, "fclass": "restaurant", "name": "U Gluma" }, "geometry": { "type": "Point", "coordinates": [ 16.6115494, 49.1956348 ] } },
{ "type": "Feature", "properties": { "osm_id": "3137210743", "code": 2301, "fclass": "restaurant", "name": null }, "geometry": { "type": "Point", "coordinates": [ 16.5272244, 49.2160438 ] } },
{ "type": "Feature", "properties": { "osm_id": "4674471411", "code": 2303, "fclass": "cafe", "name": "KĹˇĂ­rovka Golf" }, "geometry": { "type": "Point", "coordinates": [ 16.6187723, 49.1690897 ] } },
{ "type": "Feature", "properties": { "osm_id": "3390094293", "code": 2303, "fclass": "cafe", "name": "CafĂ© Veranda" }, "geometry": { "type": "Point", "coordinates": [ 16.6114676, 49.1959731 ] } },
{ "type": "Feature", "properties": { "osm_id": "2276103661", "code": 2301, "fclass": "restaurant", "name": "Restaurace a vinĂˇrna Baroko" }, "geometry": { "type": "Point", "coordinates": [ 16.6118512, 49.1939006 ] } },
{ "type": "Feature", "properties": { "osm_id": "2276108976", "code": 2303, "fclass": "cafe", "name": "Color CafĂ©" }, "geometry": { "type": "Point", "coordinates": [ 16.6118006, 49.1934718 ] } },
{ "type": "Feature", "properties": { "osm_id": "3137253972", "code": 2305, "fclass": "bar", "name": "Bar U ZelenĂ© Ĺ˝Ăˇby" }, "geometry": { "type": "Point", "coordinates": [ 16.5706299, 49.2160331 ] } },
{ "type": "Feature", "properties": { "osm_id": "3137268053", "code": 2301, "fclass": "restaurant", "name": "U Kormidla" }, "geometry": { "type": "Point", "coordinates": [ 16.6013913, 49.2018819 ] } },
{ "type": "Feature", "properties": { "osm_id": "3179112373", "code": 2305, "fclass": "bar", "name": "Sport bar" }, "geometry": { "type": "Point", "coordinates": [ 16.6300406, 49.2237744 ] } },
{ "type": "Feature", "properties": { "osm_id": "3764411589", "code": 2301, "fclass": "restaurant", "name": "Restaurace Stavba" }, "geometry": { "type": "Point", "coordinates": [ 16.5991113, 49.2012246 ] } },
{ "type": "Feature", "properties": { "osm_id": "3180997522", "code": 2301, "fclass": "restaurant", "name": "KnĂ­nickĂ˝ hostinec" }, "geometry": { "type": "Point", "coordinates": [ 16.5029118, 49.293147 ] } },
{ "type": "Feature", "properties": { "osm_id": "4379721246", "code": 2305, "fclass": "bar", "name": "Tortuga" }, "geometry": { "type": "Point", "coordinates": [ 16.6583349, 49.2062885 ] } },
{ "type": "Feature", "properties": { "osm_id": "2677300081", "code": 2305, "fclass": "bar", "name": "Bar Ĺ eki" }, "geometry": { "type": "Point", "coordinates": [ 16.6014395, 49.1882871 ] } },
{ "type": "Feature", "properties": { "osm_id": "2408787201", "code": 2301, "fclass": "restaurant", "name": "Bio Bistro SpirĂˇla" }, "geometry": { "type": "Point", "coordinates": [ 16.5955806, 49.2232591 ] } },
{ "type": "Feature", "properties": { "osm_id": "4470202087", "code": 2301, "fclass": "restaurant", "name": "ZĂˇmeckĂˇ zahradnĂ­ restaurace" }, "geometry": { "type": "Point", "coordinates": [ 16.5739681, 49.2402919 ] } },
{ "type": "Feature", "properties": { "osm_id": "1644291305", "code": 2303, "fclass": "cafe", "name": "Aurum caffe restaurant" }, "geometry": { "type": "Point", "coordinates": [ 16.593478, 49.2272389 ] } },
{ "type": "Feature", "properties": { "osm_id": "2974063865", "code": 2307, "fclass": "biergarten", "name": "Na DrĂˇze" }, "geometry": { "type": "Point", "coordinates": [ 16.6086686, 49.1891815 ] } },
{ "type": "Feature", "properties": { "osm_id": "4581824616", "code": 2301, "fclass": "restaurant", "name": "U Cibicha" }, "geometry": { "type": "Point", "coordinates": [ 16.6837479, 49.1740222 ] } },
{ "type": "Feature", "properties": { "osm_id": "1513540545", "code": 2305, "fclass": "bar", "name": "BrĹĂˇk bar" }, "geometry": { "type": "Point", "coordinates": [ 16.6106989, 49.2003832 ] } },
{ "type": "Feature", "properties": { "osm_id": "2974350470", "code": 2301, "fclass": "restaurant", "name": "Varadero" }, "geometry": { "type": "Point", "coordinates": [ 16.686451, 49.213259 ] } },
{ "type": "Feature", "properties": { "osm_id": "1514005340", "code": 2301, "fclass": "restaurant", "name": "Central" }, "geometry": { "type": "Point", "coordinates": [ 16.6110243, 49.2029452 ] } },
{ "type": "Feature", "properties": { "osm_id": "454689418", "code": 2305, "fclass": "bar", "name": "Vega" }, "geometry": { "type": "Point", "coordinates": [ 16.6163538, 49.1916412 ] } },
{ "type": "Feature", "properties": { "osm_id": "3253626431", "code": 2301, "fclass": "restaurant", "name": "Light of India" }, "geometry": { "type": "Point", "coordinates": [ 16.6019074, 49.2113228 ] } },
{ "type": "Feature", "properties": { "osm_id": "4418027589", "code": 2303, "fclass": "cafe", "name": "DÄ›tskĂˇ kavĂˇrna Mezi stromy" }, "geometry": { "type": "Point", "coordinates": [ 16.6121553, 49.1935578 ] } },
{ "type": "Feature", "properties": { "osm_id": "454689421", "code": 2305, "fclass": "bar", "name": "DD" }, "geometry": { "type": "Point", "coordinates": [ 16.6158972, 49.1914989 ] } },
{ "type": "Feature", "properties": { "osm_id": "3253626434", "code": 2305, "fclass": "bar", "name": "Casus" }, "geometry": { "type": "Point", "coordinates": [ 16.6027362, 49.2099281 ] } },
{ "type": "Feature", "properties": { "osm_id": "4470468154", "code": 2303, "fclass": "cafe", "name": "Brunche's" }, "geometry": { "type": "Point", "coordinates": [ 16.5872014, 49.2222496 ] } },
{ "type": "Feature", "properties": { "osm_id": "4418046516", "code": 2303, "fclass": "cafe", "name": "Adrinela Cafe" }, "geometry": { "type": "Point", "coordinates": [ 16.6341866, 49.1911707 ] } },
{ "type": "Feature", "properties": { "osm_id": "3253639355", "code": 2301, "fclass": "restaurant", "name": "Nihao" }, "geometry": { "type": "Point", "coordinates": [ 16.6031546, 49.2091921 ] } },
{ "type": "Feature", "properties": { "osm_id": "2213112180", "code": 2301, "fclass": "restaurant", "name": "PohĂˇdkovĂˇ hospĹŻdka" }, "geometry": { "type": "Point", "coordinates": [ 16.5880641, 49.2183749 ] } },
{ "type": "Feature", "properties": { "osm_id": "1514396131", "code": 2303, "fclass": "cafe", "name": "CafĂ© Laundry" }, "geometry": { "type": "Point", "coordinates": [ 16.607, 49.2039394 ] } },
{ "type": "Feature", "properties": { "osm_id": "2213112181", "code": 2301, "fclass": "restaurant", "name": "PotrefenĂˇ husa" }, "geometry": { "type": "Point", "coordinates": [ 16.6073695, 49.1924382 ] } },
{ "type": "Feature", "properties": { "osm_id": "1514441113", "code": 2301, "fclass": "restaurant", "name": "Carpe Diem" }, "geometry": { "type": "Point", "coordinates": [ 16.6105621, 49.2014417 ] } },
{ "type": "Feature", "properties": { "osm_id": "1647884109", "code": 2301, "fclass": "restaurant", "name": "U Emila" }, "geometry": { "type": "Point", "coordinates": [ 16.6063912, 49.1890251 ] } },
{ "type": "Feature", "properties": { "osm_id": "3253639360", "code": 2301, "fclass": "restaurant", "name": "Pohoda" }, "geometry": { "type": "Point", "coordinates": [ 16.6035596, 49.2084999 ] } },
{ "type": "Feature", "properties": { "osm_id": "3253689324", "code": 2305, "fclass": "bar", "name": "Sport bar" }, "geometry": { "type": "Point", "coordinates": [ 16.603793, 49.2090589 ] } },
{ "type": "Feature", "properties": { "osm_id": "1514494178", "code": 2305, "fclass": "bar", "name": "Traubka" }, "geometry": { "type": "Point", "coordinates": [ 16.6152336, 49.202132 ] } },
{ "type": "Feature", "properties": { "osm_id": "3253689326", "code": 2301, "fclass": "restaurant", "name": "Leonardo" }, "geometry": { "type": "Point", "coordinates": [ 16.603978, 49.2087348 ] } },
{ "type": "Feature", "properties": { "osm_id": "455004420", "code": 2301, "fclass": "restaurant", "name": "VĂ˝letnĂ­ Hospoda Princezna" }, "geometry": { "type": "Point", "coordinates": [ 16.5054093, 49.2463091 ] } },
{ "type": "Feature", "properties": { "osm_id": "2848141614", "code": 2305, "fclass": "bar", "name": "VinotĂ©ka" }, "geometry": { "type": "Point", "coordinates": [ 16.6030125, 49.2053297 ] } },
{ "type": "Feature", "properties": { "osm_id": "1514495217", "code": 2305, "fclass": "bar", "name": "Jazz Klub Triumf" }, "geometry": { "type": "Point", "coordinates": [ 16.6074619, 49.2032957 ] } },
{ "type": "Feature", "properties": { "osm_id": "1514495833", "code": 2301, "fclass": "restaurant", "name": "Tulip" }, "geometry": { "type": "Point", "coordinates": [ 16.6112009, 49.2012872 ] } },
{ "type": "Feature", "properties": { "osm_id": "3253806184", "code": 2305, "fclass": "bar", "name": "Little Las Vegas" }, "geometry": { "type": "Point", "coordinates": [ 16.6043455, 49.2081004 ] } },
{ "type": "Feature", "properties": { "osm_id": "1776924869", "code": 2303, "fclass": "cafe", "name": "KLAFE" }, "geometry": { "type": "Point", "coordinates": [ 16.5830135, 49.2008573 ] } },
{ "type": "Feature", "properties": { "osm_id": "1514496114", "code": 2301, "fclass": "restaurant", "name": "U StarĂ˝ho Billa" }, "geometry": { "type": "Point", "coordinates": [ 16.6120342, 49.2018649 ] } },
{ "type": "Feature", "properties": { "osm_id": "1776930005", "code": 2303, "fclass": "cafe", "name": "CaffĂ© del Saggio" }, "geometry": { "type": "Point", "coordinates": [ 16.5866299, 49.1987376 ] } },
{ "type": "Feature", "properties": { "osm_id": "3390811913", "code": 2303, "fclass": "cafe", "name": "Little Something" }, "geometry": { "type": "Point", "coordinates": [ 16.6099981, 49.1924111 ] } },
{ "type": "Feature", "properties": { "osm_id": "3510215500", "code": 2303, "fclass": "cafe", "name": "Bajkazyl" }, "geometry": { "type": "Point", "coordinates": [ 16.6142847, 49.1910494 ] } },
{ "type": "Feature", "properties": { "osm_id": "4293403594", "code": 2301, "fclass": "restaurant", "name": "Panda" }, "geometry": { "type": "Point", "coordinates": [ 16.6078087, 49.2171767 ] } },
{ "type": "Feature", "properties": { "osm_id": "3510249400", "code": 2305, "fclass": "bar", "name": "Incanto" }, "geometry": { "type": "Point", "coordinates": [ 16.5011003, 49.2163407 ] } },
{ "type": "Feature", "properties": { "osm_id": "1920316145", "code": 2303, "fclass": "cafe", "name": "GIMMI lounge cafĂ©" }, "geometry": { "type": "Point", "coordinates": [ 16.5926418, 49.2230381 ] } },
{ "type": "Feature", "properties": { "osm_id": "2777105905", "code": 2305, "fclass": "bar", "name": "Bar GarĂˇĹľ" }, "geometry": { "type": "Point", "coordinates": [ 16.5689143, 49.2174937 ] } },
{ "type": "Feature", "properties": { "osm_id": "4199057389", "code": 2305, "fclass": "bar", "name": "Marilyn" }, "geometry": { "type": "Point", "coordinates": [ 16.6105696, 49.1931201 ] } },
{ "type": "Feature", "properties": { "osm_id": "3390996330", "code": 2301, "fclass": "restaurant", "name": "Royal Ricc" }, "geometry": { "type": "Point", "coordinates": [ 16.6071644, 49.1926073 ] } },
{ "type": "Feature", "properties": { "osm_id": "3390996335", "code": 2303, "fclass": "cafe", "name": "Podnik" }, "geometry": { "type": "Point", "coordinates": [ 16.6073843, 49.1922909 ] } },
{ "type": "Feature", "properties": { "osm_id": "1650832078", "code": 2301, "fclass": "restaurant", "name": "U BĂ­lĂ©ho berĂˇnka" }, "geometry": { "type": "Point", "coordinates": [ 16.6037798, 49.2091589 ] } },
{ "type": "Feature", "properties": { "osm_id": "1724138092", "code": 2303, "fclass": "cafe", "name": "CafĂ© Gaviota" }, "geometry": { "type": "Point", "coordinates": [ 16.5942695, 49.208542 ] } },
{ "type": "Feature", "properties": { "osm_id": "1517721236", "code": 2301, "fclass": "restaurant", "name": "1. DoubravnickĂˇ" }, "geometry": { "type": "Point", "coordinates": [ 16.6107206, 49.2000802 ] } },
{ "type": "Feature", "properties": { "osm_id": "387773428", "code": 2301, "fclass": "restaurant", "name": "Namaskar" }, "geometry": { "type": "Point", "coordinates": [ 16.6395473, 49.1935414 ] } },
{ "type": "Feature", "properties": { "osm_id": "3391007288", "code": 2305, "fclass": "bar", "name": "Shot Bar" }, "geometry": { "type": "Point", "coordinates": [ 16.6095105, 49.1964532 ] } },
{ "type": "Feature", "properties": { "osm_id": "546962031", "code": 2301, "fclass": "restaurant", "name": "U MlsnĂ© RĂłzy" }, "geometry": { "type": "Point", "coordinates": [ 16.6004738, 49.2090103 ] } },
{ "type": "Feature", "properties": { "osm_id": "3391007290", "code": 2301, "fclass": "restaurant", "name": "Da Vinci" }, "geometry": { "type": "Point", "coordinates": [ 16.60965, 49.1961806 ] } },
{ "type": "Feature", "properties": { "osm_id": "1724339181", "code": 2303, "fclass": "cafe", "name": "Zemanova kavĂˇrna" }, "geometry": { "type": "Point", "coordinates": [ 16.6117692, 49.1932116 ] } },
{ "type": "Feature", "properties": { "osm_id": "3391031526", "code": 2301, "fclass": "restaurant", "name": "Astorka" }, "geometry": { "type": "Point", "coordinates": [ 16.6130411, 49.1947966 ] } },
{ "type": "Feature", "properties": { "osm_id": "3768501643", "code": 2305, "fclass": "bar", "name": "Super Panda Circus" }, "geometry": { "type": "Point", "coordinates": [ 16.6051943, 49.1926601 ] } },
{ "type": "Feature", "properties": { "osm_id": "3722401074", "code": 2307, "fclass": "biergarten", "name": null }, "geometry": { "type": "Point", "coordinates": [ 16.5816869, 49.170249 ] } },
{ "type": "Feature", "properties": { "osm_id": "2087141374", "code": 2301, "fclass": "restaurant", "name": "Havana Restaurant" }, "geometry": { "type": "Point", "coordinates": [ 16.6754454, 49.2062804 ] } },
{ "type": "Feature", "properties": { "osm_id": "3391057417", "code": 2301, "fclass": "restaurant", "name": "Na HalĂˇch" }, "geometry": { "type": "Point", "coordinates": [ 16.6055002, 49.2126254 ] } },
{ "type": "Feature", "properties": { "osm_id": "4419187707", "code": 2303, "fclass": "cafe", "name": "Clubovna" }, "geometry": { "type": "Point", "coordinates": [ 16.5958981, 49.1925914 ] } },
{ "type": "Feature", "properties": { "osm_id": "1925175860", "code": 2303, "fclass": "cafe", "name": "CukrĂˇrna AniÄŤka" }, "geometry": { "type": "Point", "coordinates": [ 16.5278833, 49.234672 ] } },
{ "type": "Feature", "properties": { "osm_id": "2977882645", "code": 2301, "fclass": "restaurant", "name": "Sport BalkĂˇn" }, "geometry": { "type": "Point", "coordinates": [ 16.6236758, 49.2034462 ] } },
{ "type": "Feature", "properties": { "osm_id": "2087554933", "code": 2301, "fclass": "restaurant", "name": "Restaurace Valoria" }, "geometry": { "type": "Point", "coordinates": [ 16.6044747, 49.1632559 ] } },
{ "type": "Feature", "properties": { "osm_id": "3183041661", "code": 2301, "fclass": "restaurant", "name": "Pauzza" }, "geometry": { "type": "Point", "coordinates": [ 16.6788252, 49.168411 ] } },
{ "type": "Feature", "properties": { "osm_id": "2087568906", "code": 2301, "fclass": "restaurant", "name": "Rebio" }, "geometry": { "type": "Point", "coordinates": [ 16.6045173, 49.1802185 ] } },
{ "type": "Feature", "properties": { "osm_id": "1925175885", "code": 2303, "fclass": "cafe", "name": "Martin Cafe" }, "geometry": { "type": "Point", "coordinates": [ 16.5959445, 49.2214161 ] } },
{ "type": "Feature", "properties": { "osm_id": "2278254966", "code": 2301, "fclass": "restaurant", "name": "Restaurace Na Ĺ pici" }, "geometry": { "type": "Point", "coordinates": [ 16.6385021, 49.1890284 ] } },
{ "type": "Feature", "properties": { "osm_id": "1652118385", "code": 2301, "fclass": "restaurant", "name": "U ZlatĂ© hruĹˇky" }, "geometry": { "type": "Point", "coordinates": [ 16.593684, 49.1969168 ] } },
{ "type": "Feature", "properties": { "osm_id": "2087575241", "code": 2301, "fclass": "restaurant", "name": "JĂ­delna MÄ›stskĂ©ho soudu" }, "geometry": { "type": "Point", "coordinates": [ 16.6030885, 49.1824655 ] } },
{ "type": "Feature", "properties": { "osm_id": "1925175890", "code": 2301, "fclass": "restaurant", "name": "ď»żRestaurant-pizzeria MARINA" }, "geometry": { "type": "Point", "coordinates": [ 16.5280145, 49.2354048 ] } },
{ "type": "Feature", "properties": { "osm_id": "2087581919", "code": 2301, "fclass": "restaurant", "name": "Pizzerie Sharingham" }, "geometry": { "type": "Point", "coordinates": [ 16.5954119, 49.1860322 ] } },
{ "type": "Feature", "properties": { "osm_id": "2087582638", "code": 2301, "fclass": "restaurant", "name": "Restaurace Sharingham" }, "geometry": { "type": "Point", "coordinates": [ 16.5956037, 49.186126 ] } },
{ "type": "Feature", "properties": { "osm_id": "2087588051", "code": 2301, "fclass": "restaurant", "name": "PotrefenĂˇ husa" }, "geometry": { "type": "Point", "coordinates": [ 16.6154775, 49.1875414 ] } },
{ "type": "Feature", "properties": { "osm_id": "3899801095", "code": 2301, "fclass": "restaurant", "name": "LokĂˇl U Caipla" }, "geometry": { "type": "Point", "coordinates": [ 16.6094489, 49.1958728 ] } },
{ "type": "Feature", "properties": { "osm_id": "3722676845", "code": 2301, "fclass": "restaurant", "name": "Bistro Ocean48" }, "geometry": { "type": "Point", "coordinates": [ 16.5961399, 49.2219696 ] } },
{ "type": "Feature", "properties": { "osm_id": "2278279417", "code": 2301, "fclass": "restaurant", "name": "Restaurace SluneÄŤnice" }, "geometry": { "type": "Point", "coordinates": [ 16.638623, 49.1759245 ] } },
{ "type": "Feature", "properties": { "osm_id": "250131898", "code": 2301, "fclass": "restaurant", "name": "Motorest Rohlenka" }, "geometry": { "type": "Point", "coordinates": [ 16.7611864, 49.1839148 ] } },
{ "type": "Feature", "properties": { "osm_id": "4045629820", "code": 2303, "fclass": "cafe", "name": "CukrĂˇrna Corner" }, "geometry": { "type": "Point", "coordinates": [ 16.6237437, 49.2047212 ] } },
{ "type": "Feature", "properties": { "osm_id": "2322362203", "code": 2303, "fclass": "cafe", "name": "Limbo" }, "geometry": { "type": "Point", "coordinates": [ 16.6000859, 49.1989646 ] } },
{ "type": "Feature", "properties": { "osm_id": "1725956483", "code": 2303, "fclass": "cafe", "name": "CaffĂ© Minor" }, "geometry": { "type": "Point", "coordinates": [ 16.5941247, 49.1975409 ] } },
{ "type": "Feature", "properties": { "osm_id": "2216952436", "code": 2305, "fclass": "bar", "name": "Bastr bar" }, "geometry": { "type": "Point", "coordinates": [ 16.5087154, 49.2173462 ] } },
{ "type": "Feature", "properties": { "osm_id": "4045817485", "code": 2305, "fclass": "bar", "name": "Exit music club" }, "geometry": { "type": "Point", "coordinates": [ 16.6082298, 49.1943524 ] } },
{ "type": "Feature", "properties": { "osm_id": "2216974405", "code": 2301, "fclass": "restaurant", "name": "Restaurace a herna U Tety" }, "geometry": { "type": "Point", "coordinates": [ 16.5168935, 49.2206223 ] } },
{ "type": "Feature", "properties": { "osm_id": "1119975710", "code": 2303, "fclass": "cafe", "name": "Cafe PrĂˇh" }, "geometry": { "type": "Point", "coordinates": [ 16.6156085, 49.1872587 ] } },
{ "type": "Feature", "properties": { "osm_id": "836534083", "code": 2301, "fclass": "restaurant", "name": "Restaurace Parlament" }, "geometry": { "type": "Point", "coordinates": [ 16.610487, 49.1649332 ] } },
{ "type": "Feature", "properties": { "osm_id": "644611243", "code": 2301, "fclass": "restaurant", "name": "Restaurace na ChatÄ›" }, "geometry": { "type": "Point", "coordinates": [ 16.615112, 49.2086405 ] } },
{ "type": "Feature", "properties": { "osm_id": "4757745209", "code": 2303, "fclass": "cafe", "name": "Panksy" }, "geometry": { "type": "Point", "coordinates": [ 16.5999648, 49.1990659 ] } },
{ "type": "Feature", "properties": { "osm_id": "4757745210", "code": 2301, "fclass": "restaurant", "name": "Siam Thai" }, "geometry": { "type": "Point", "coordinates": [ 16.5986505, 49.1997442 ] } },
{ "type": "Feature", "properties": { "osm_id": "1526309789", "code": 2301, "fclass": "restaurant", "name": "Restaurace Za KapliÄŤkou" }, "geometry": { "type": "Point", "coordinates": [ 16.5784675, 49.2119821 ] } },
{ "type": "Feature", "properties": { "osm_id": "1526309792", "code": 2301, "fclass": "restaurant", "name": "V-club" }, "geometry": { "type": "Point", "coordinates": [ 16.5840477, 49.2013307 ] } },
{ "type": "Feature", "properties": { "osm_id": "2323343838", "code": 2301, "fclass": "restaurant", "name": "Terasa" }, "geometry": { "type": "Point", "coordinates": [ 16.6231409, 49.1720034 ] } },
{ "type": "Feature", "properties": { "osm_id": "1319345829", "code": 2301, "fclass": "restaurant", "name": "Avanti" }, "geometry": { "type": "Point", "coordinates": [ 16.6047826, 49.2127568 ] } },
{ "type": "Feature", "properties": { "osm_id": "1780109863", "code": 2301, "fclass": "restaurant", "name": "Hospoda WomickĂˇ" }, "geometry": { "type": "Point", "coordinates": [ 16.451504, 49.1701059 ] } },
{ "type": "Feature", "properties": { "osm_id": "1528351529", "code": 2301, "fclass": "restaurant", "name": "La BouchĂ©e" }, "geometry": { "type": "Point", "coordinates": [ 16.5988066, 49.1977237 ] } },
{ "type": "Feature", "properties": { "osm_id": "3184210078", "code": 2301, "fclass": "restaurant", "name": "Vivobene Gusto" }, "geometry": { "type": "Point", "coordinates": [ 16.6090615, 49.1959596 ] } },
{ "type": "Feature", "properties": { "osm_id": "1655802065", "code": 2301, "fclass": "restaurant", "name": "RubĂ­n" }, "geometry": { "type": "Point", "coordinates": [ 16.5766761, 49.2184703 ] } },
{ "type": "Feature", "properties": { "osm_id": "1528351538", "code": 2301, "fclass": "restaurant", "name": "Pod lĂ©kĂˇrnou" }, "geometry": { "type": "Point", "coordinates": [ 16.6017541, 49.2000489 ] } },
{ "type": "Feature", "properties": { "osm_id": "1528351540", "code": 2301, "fclass": "restaurant", "name": "PlzniÄŤka (Forman Beer & Beef)" }, "geometry": { "type": "Point", "coordinates": [ 16.6052946, 49.1971626 ] } },
{ "type": "Feature", "properties": { "osm_id": "1528351542", "code": 2301, "fclass": "restaurant", "name": "Grand Restaurant ZelenĂˇ koÄŤka" }, "geometry": { "type": "Point", "coordinates": [ 16.5925968, 49.2118391 ] } },
{ "type": "Feature", "properties": { "osm_id": "1528351545", "code": 2303, "fclass": "cafe", "name": "KavĂˇrna pod hodinami" }, "geometry": { "type": "Point", "coordinates": [ 16.6051919, 49.1971969 ] } },
{ "type": "Feature", "properties": { "osm_id": "552792697", "code": 2303, "fclass": "cafe", "name": "KavĂˇrna MonRo" }, "geometry": { "type": "Point", "coordinates": [ 16.6174369, 49.205534 ] } },
{ "type": "Feature", "properties": { "osm_id": "1528351548", "code": 2305, "fclass": "bar", "name": "VinotĂ©ka KamennĂ˝ dĹľbĂˇn" }, "geometry": { "type": "Point", "coordinates": [ 16.6051565, 49.1973037 ] } },
{ "type": "Feature", "properties": { "osm_id": "2617779363", "code": 2301, "fclass": "restaurant", "name": "VeselĂˇ nota" }, "geometry": { "type": "Point", "coordinates": [ 16.5387018, 49.1916888 ] } },
{ "type": "Feature", "properties": { "osm_id": "1528351597", "code": 2301, "fclass": "restaurant", "name": "U Lucerny" }, "geometry": { "type": "Point", "coordinates": [ 16.6019415, 49.1998454 ] } },
{ "type": "Feature", "properties": { "osm_id": "2218449398", "code": 2305, "fclass": "bar", "name": null }, "geometry": { "type": "Point", "coordinates": [ 16.5185482, 49.2207262 ] } },
{ "type": "Feature", "properties": { "osm_id": "966582084", "code": 2303, "fclass": "cafe", "name": "KavĂˇrna ERA" }, "geometry": { "type": "Point", "coordinates": [ 16.6191078, 49.2105557 ] } },
{ "type": "Feature", "properties": { "osm_id": "2784431188", "code": 2301, "fclass": "restaurant", "name": "Hostinec u U TesaĹ™e" }, "geometry": { "type": "Point", "coordinates": [ 16.5991708, 49.1813431 ] } },
{ "type": "Feature", "properties": { "osm_id": "2218472188", "code": 2301, "fclass": "restaurant", "name": "U SmradlavĂ˝ho kojota" }, "geometry": { "type": "Point", "coordinates": [ 16.5049675, 49.2162482 ] } },
{ "type": "Feature", "properties": { "osm_id": "2218476037", "code": 2301, "fclass": "restaurant", "name": "Restaurace JedniÄŤka" }, "geometry": { "type": "Point", "coordinates": [ 16.5200147, 49.2299533 ] } },
{ "type": "Feature", "properties": { "osm_id": "2218481669", "code": 2305, "fclass": "bar", "name": "Prygl bar" }, "geometry": { "type": "Point", "coordinates": [ 16.5192722, 49.2294435 ] } },
{ "type": "Feature", "properties": { "osm_id": "2218483013", "code": 2301, "fclass": "restaurant", "name": "HospĹŻdka u Kosa" }, "geometry": { "type": "Point", "coordinates": [ 16.5189203, 49.2294182 ] } },
{ "type": "Feature", "properties": { "osm_id": "2784431194", "code": 2301, "fclass": "restaurant", "name": "Union" }, "geometry": { "type": "Point", "coordinates": [ 16.5964549, 49.1789766 ] } },
{ "type": "Feature", "properties": { "osm_id": "4296800076", "code": 2301, "fclass": "restaurant", "name": "La Corrida" }, "geometry": { "type": "Point", "coordinates": [ 16.5818252, 49.2151174 ] } },
{ "type": "Feature", "properties": { "osm_id": "342795564", "code": 2301, "fclass": "restaurant", "name": "Restaurace Orlovna" }, "geometry": { "type": "Point", "coordinates": [ 16.718881, 49.1016246 ] } },
{ "type": "Feature", "properties": { "osm_id": "3929623722", "code": 2301, "fclass": "restaurant", "name": "Hostinec u VedrĹŻ" }, "geometry": { "type": "Point", "coordinates": [ 16.6829787, 49.1780499 ] } },
{ "type": "Feature", "properties": { "osm_id": "3929623726", "code": 2301, "fclass": "restaurant", "name": "Na Mlatech" }, "geometry": { "type": "Point", "coordinates": [ 16.6865777, 49.177882 ] } },
{ "type": "Feature", "properties": { "osm_id": "4761784266", "code": 2301, "fclass": "restaurant", "name": "Makalu" }, "geometry": { "type": "Point", "coordinates": [ 16.5950255, 49.1850343 ] } },
{ "type": "Feature", "properties": { "osm_id": "4383364693", "code": 2301, "fclass": "restaurant", "name": null }, "geometry": { "type": "Point", "coordinates": [ 16.5326486, 49.2307447 ] } },
{ "type": "Feature", "properties": { "osm_id": "707989273", "code": 2301, "fclass": "restaurant", "name": "Pux Pub" }, "geometry": { "type": "Point", "coordinates": [ 16.6007629, 49.1985219 ] } },
{ "type": "Feature", "properties": { "osm_id": "708859543", "code": 2301, "fclass": "restaurant", "name": "Pegas" }, "geometry": { "type": "Point", "coordinates": [ 16.5958923, 49.2030931 ] } },
{ "type": "Feature", "properties": { "osm_id": "4476423378", "code": 2303, "fclass": "cafe", "name": "CafĂ© & Bistro BĂ­lĂˇ VrĂˇna" }, "geometry": { "type": "Point", "coordinates": [ 16.5540324, 49.2206283 ] } },
{ "type": "Feature", "properties": { "osm_id": "3071066843", "code": 2303, "fclass": "cafe", "name": "CukrĂˇrna U kostela" }, "geometry": { "type": "Point", "coordinates": [ 16.4379113, 49.2751285 ] } },
{ "type": "Feature", "properties": { "osm_id": "3462485652", "code": 2305, "fclass": "bar", "name": "Music Lab" }, "geometry": { "type": "Point", "coordinates": [ 16.6043545, 49.1967655 ] } },
{ "type": "Feature", "properties": { "osm_id": "392963424", "code": 2301, "fclass": "restaurant", "name": null }, "geometry": { "type": "Point", "coordinates": [ 16.726736, 49.1691938 ] } },
{ "type": "Feature", "properties": { "osm_id": "1133663947", "code": 2301, "fclass": "restaurant", "name": null }, "geometry": { "type": "Point", "coordinates": [ 16.6654979, 49.1471634 ] } },
{ "type": "Feature", "properties": { "osm_id": "3188485940", "code": 2301, "fclass": "restaurant", "name": "La Speranza" }, "geometry": { "type": "Point", "coordinates": [ 16.6074345, 49.2025917 ] } },
{ "type": "Feature", "properties": { "osm_id": "3188485941", "code": 2305, "fclass": "bar", "name": "VinotĂ©ka Marlena" }, "geometry": { "type": "Point", "coordinates": [ 16.6074667, 49.2024507 ] } },
{ "type": "Feature", "properties": { "osm_id": "3188485943", "code": 2301, "fclass": "restaurant", "name": "VitalitĂ©" }, "geometry": { "type": "Point", "coordinates": [ 16.6075767, 49.2022325 ] } },
{ "type": "Feature", "properties": { "osm_id": "459981872", "code": 2301, "fclass": "restaurant", "name": "Coucou CafĂ© Restaurant" }, "geometry": { "type": "Point", "coordinates": [ 16.5032919, 49.1540348 ] } },
{ "type": "Feature", "properties": { "osm_id": "3462485662", "code": 2301, "fclass": "restaurant", "name": "Borsalino" }, "geometry": { "type": "Point", "coordinates": [ 16.6122013, 49.1939006 ] } },
{ "type": "Feature", "properties": { "osm_id": "393217282", "code": 2301, "fclass": "restaurant", "name": "TJ Sokol Ĺ lapanice" }, "geometry": { "type": "Point", "coordinates": [ 16.7286093, 49.1605232 ] } },
{ "type": "Feature", "properties": { "osm_id": "3462490860", "code": 2301, "fclass": "restaurant", "name": "Cattani" }, "geometry": { "type": "Point", "coordinates": [ 16.6116863, 49.1933283 ] } },
{ "type": "Feature", "properties": { "osm_id": "3188485948", "code": 2303, "fclass": "cafe", "name": "CafĂ© Chat Noir" }, "geometry": { "type": "Point", "coordinates": [ 16.6071722, 49.2018201 ] } },
{ "type": "Feature", "properties": { "osm_id": "712946373", "code": 2301, "fclass": "restaurant", "name": "Weinerka" }, "geometry": { "type": "Point", "coordinates": [ 16.6415466, 49.1768087 ] } },
{ "type": "Feature", "properties": { "osm_id": "393217771", "code": 2301, "fclass": "restaurant", "name": "Happy-bar" }, "geometry": { "type": "Point", "coordinates": [ 16.7224651, 49.1659416 ] } },
{ "type": "Feature", "properties": { "osm_id": "3188485952", "code": 2303, "fclass": "cafe", "name": "Mymika" }, "geometry": { "type": "Point", "coordinates": [ 16.6072867, 49.201404 ] } },
{ "type": "Feature", "properties": { "osm_id": "3462928344", "code": 2301, "fclass": "restaurant", "name": "Steak House K1" }, "geometry": { "type": "Point", "coordinates": [ 16.6341297, 49.2005396 ] } },
{ "type": "Feature", "properties": { "osm_id": "459981920", "code": 2301, "fclass": "restaurant", "name": "U nĂˇdraĹľĂ­" }, "geometry": { "type": "Point", "coordinates": [ 16.4820808, 49.1543032 ] } },
{ "type": "Feature", "properties": { "osm_id": "2222783440", "code": 2301, "fclass": "restaurant", "name": "LĂ­skoveckĂˇ terasa" }, "geometry": { "type": "Point", "coordinates": [ 16.5591959, 49.1756022 ] } },
{ "type": "Feature", "properties": { "osm_id": "2172312234", "code": 2301, "fclass": "restaurant", "name": "Everest" }, "geometry": { "type": "Point", "coordinates": [ 16.5965662, 49.2033632 ] } },
{ "type": "Feature", "properties": { "osm_id": "2172312235", "code": 2303, "fclass": "cafe", "name": "Leyaly" }, "geometry": { "type": "Point", "coordinates": [ 16.6085458, 49.2002814 ] } },
{ "type": "Feature", "properties": { "osm_id": "1371469303", "code": 2301, "fclass": "restaurant", "name": "Hoa Mai" }, "geometry": { "type": "Point", "coordinates": [ 16.6025452, 49.2061208 ] } },
{ "type": "Feature", "properties": { "osm_id": "1371469308", "code": 2305, "fclass": "bar", "name": "BarBar" }, "geometry": { "type": "Point", "coordinates": [ 16.6024915, 49.206219 ] } },
{ "type": "Feature", "properties": { "osm_id": "1931330685", "code": 2301, "fclass": "restaurant", "name": null }, "geometry": { "type": "Point", "coordinates": [ 16.6343314, 49.1047317 ] } },
{ "type": "Feature", "properties": { "osm_id": "4240996351", "code": 2305, "fclass": "bar", "name": "MlĂ©ÄŤnĂ˝ bar Marcela IhnaÄŤĂˇka" }, "geometry": { "type": "Point", "coordinates": [ 16.6043013, 49.1939842 ] } },
{ "type": "Feature", "properties": { "osm_id": "3273496865", "code": 2305, "fclass": "bar", "name": "K5 Bar" }, "geometry": { "type": "Point", "coordinates": [ 16.6281825, 49.2175329 ] } },
{ "type": "Feature", "properties": { "osm_id": "3684656799", "code": 2301, "fclass": "restaurant", "name": "Hradni" }, "geometry": { "type": "Point", "coordinates": [ 16.6500242, 49.3024378 ] } },
{ "type": "Feature", "properties": { "osm_id": "652403296", "code": 2301, "fclass": "restaurant", "name": "Kaple 09" }, "geometry": { "type": "Point", "coordinates": [ 16.5758251, 49.2422196 ] } },
{ "type": "Feature", "properties": { "osm_id": "1323483185", "code": 2301, "fclass": "restaurant", "name": "Rebio" }, "geometry": { "type": "Point", "coordinates": [ 16.6126594, 49.1940996 ] } },
{ "type": "Feature", "properties": { "osm_id": "3932522703", "code": 2301, "fclass": "restaurant", "name": "PivnĂ­ dveĹ™e" }, "geometry": { "type": "Point", "coordinates": [ 16.6010797, 49.2008609 ] } },
{ "type": "Feature", "properties": { "osm_id": "2173043957", "code": 2301, "fclass": "restaurant", "name": "Na PurkyĹce" }, "geometry": { "type": "Point", "coordinates": [ 16.5846348, 49.2226846 ] } },
{ "type": "Feature", "properties": { "osm_id": "3274159228", "code": 2301, "fclass": "restaurant", "name": "Salve" }, "geometry": { "type": "Point", "coordinates": [ 16.6238726, 49.2242104 ] } },
{ "type": "Feature", "properties": { "osm_id": "3274159233", "code": 2303, "fclass": "cafe", "name": "Gallo Nero" }, "geometry": { "type": "Point", "coordinates": [ 16.6233832, 49.2236577 ] } },
{ "type": "Feature", "properties": { "osm_id": "652426622", "code": 2301, "fclass": "restaurant", "name": "Moname" }, "geometry": { "type": "Point", "coordinates": [ 16.5742224, 49.2402734 ] } },
{ "type": "Feature", "properties": { "osm_id": "844207471", "code": 2301, "fclass": "restaurant", "name": "StarobrnÄ›nskĂ˝ Ĺˇenk" }, "geometry": { "type": "Point", "coordinates": [ 16.5488961, 49.1795463 ] } },
{ "type": "Feature", "properties": { "osm_id": "652430531", "code": 2301, "fclass": "restaurant", "name": "Stronghold" }, "geometry": { "type": "Point", "coordinates": [ 16.5831272, 49.2382272 ] } },
{ "type": "Feature", "properties": { "osm_id": "3932552165", "code": 2303, "fclass": "cafe", "name": "LattĂ©" }, "geometry": { "type": "Point", "coordinates": [ 16.6051128, 49.1929364 ] } },
{ "type": "Feature", "properties": { "osm_id": "2329026837", "code": 2301, "fclass": "restaurant", "name": "Bistro u MlĂ˝na" }, "geometry": { "type": "Point", "coordinates": [ 16.7154539, 49.2036687 ] } },
{ "type": "Feature", "properties": { "osm_id": "4590359194", "code": 2305, "fclass": "bar", "name": "Lounge bar" }, "geometry": { "type": "Point", "coordinates": [ 16.6121494, 49.1907746 ] } },
{ "type": "Feature", "properties": { "osm_id": "2228556438", "code": 2303, "fclass": "cafe", "name": "KavĂˇrna - cukrĂˇrna Smile s.r.o." }, "geometry": { "type": "Point", "coordinates": [ 16.5299097, 49.2265714 ] } },
{ "type": "Feature", "properties": { "osm_id": "4346173590", "code": 2305, "fclass": "bar", "name": "U OfuÄŤka" }, "geometry": { "type": "Point", "coordinates": [ 16.7214131, 49.1791176 ] } },
{ "type": "Feature", "properties": { "osm_id": "2690153400", "code": 2303, "fclass": "cafe", "name": "Panos" }, "geometry": { "type": "Point", "coordinates": [ 16.5657609, 49.1760808 ] } },
{ "type": "Feature", "properties": { "osm_id": "653283073", "code": 2301, "fclass": "restaurant", "name": "KiKi" }, "geometry": { "type": "Point", "coordinates": [ 16.539865, 49.1954585 ] } },
{ "type": "Feature", "properties": { "osm_id": "3276510760", "code": 2301, "fclass": "restaurant", "name": "Iguana" }, "geometry": { "type": "Point", "coordinates": [ 16.6243971, 49.2230557 ] } },
{ "type": "Feature", "properties": { "osm_id": "846265845", "code": 2301, "fclass": "restaurant", "name": "U DĹ™evÄ›nĂ©ho stolu" }, "geometry": { "type": "Point", "coordinates": [ 16.6204052, 49.2040441 ] } },
{ "type": "Feature", "properties": { "osm_id": "3276510885", "code": 2305, "fclass": "bar", "name": "VinotĂ©ka Alla" }, "geometry": { "type": "Point", "coordinates": [ 16.6238472, 49.2224934 ] } },
{ "type": "Feature", "properties": { "osm_id": "1432431130", "code": 2301, "fclass": "restaurant", "name": "Pohoda" }, "geometry": { "type": "Point", "coordinates": [ 16.5265365, 49.2143157 ] } },
{ "type": "Feature", "properties": { "osm_id": "3932683316", "code": 2305, "fclass": "bar", "name": "HerniÄŤka" }, "geometry": { "type": "Point", "coordinates": [ 16.5987056, 49.188941 ] } },
{ "type": "Feature", "properties": { "osm_id": "3932697433", "code": 2303, "fclass": "cafe", "name": "CafĂ© 1805" }, "geometry": { "type": "Point", "coordinates": [ 16.5944624, 49.1860462 ] } },
{ "type": "Feature", "properties": { "osm_id": "2330391043", "code": 2301, "fclass": "restaurant", "name": "ZĂˇgreb" }, "geometry": { "type": "Point", "coordinates": [ 16.5901717, 49.2318098 ] } },
{ "type": "Feature", "properties": { "osm_id": "2330394964", "code": 2301, "fclass": "restaurant", "name": "Gastro U Moniky" }, "geometry": { "type": "Point", "coordinates": [ 16.578852, 49.2458597 ] } },
{ "type": "Feature", "properties": { "osm_id": "4385791989", "code": 2303, "fclass": "cafe", "name": "Lakeview" }, "geometry": { "type": "Point", "coordinates": [ 16.5771537, 49.2307106 ] } },
{ "type": "Feature", "properties": { "osm_id": "846953382", "code": 2301, "fclass": "restaurant", "name": "U LabuĹľnĂ­ka" }, "geometry": { "type": "Point", "coordinates": [ 16.6331542, 49.210445 ] } },
{ "type": "Feature", "properties": { "osm_id": "4385801189", "code": 2301, "fclass": "restaurant", "name": null }, "geometry": { "type": "Point", "coordinates": [ 16.5836027, 49.2339319 ] } },
{ "type": "Feature", "properties": { "osm_id": "3838055503", "code": 2301, "fclass": "restaurant", "name": "Gril Club" }, "geometry": { "type": "Point", "coordinates": [ 16.6197318, 49.1931662 ] } },
{ "type": "Feature", "properties": { "osm_id": "3077481344", "code": 2301, "fclass": "restaurant", "name": "ZlatĂˇ HvÄ›zda" }, "geometry": { "type": "Point", "coordinates": [ 16.6152304, 49.1979583 ] } },
{ "type": "Feature", "properties": { "osm_id": "3838067455", "code": 2301, "fclass": "restaurant", "name": "JĂ­delna Kocourek" }, "geometry": { "type": "Point", "coordinates": [ 16.6187251, 49.1923543 ] } },
{ "type": "Feature", "properties": { "osm_id": "1548084601", "code": 2301, "fclass": "restaurant", "name": "U Sudu" }, "geometry": { "type": "Point", "coordinates": [ 16.5936211, 49.2262101 ] } },
{ "type": "Feature", "properties": { "osm_id": "1666942798", "code": 2303, "fclass": "cafe", "name": "D-CafĂ©" }, "geometry": { "type": "Point", "coordinates": [ 16.6077121, 49.2015875 ] } },
{ "type": "Feature", "properties": { "osm_id": "403882382", "code": 2301, "fclass": "restaurant", "name": "U mÄ›dÄ›nĂ© pĂˇnve" },