{
"type": "FeatureCollection",
"crs": { "type": "name", "properties": { "name": "urn:ogc:def:crs:OGC:1.3:CRS84" } },
"features": [
{ "type": "Feature", "properties": { "osm_id": "3946486280", "code": 5621, "fclass": "bus_stop", "name": "LesnĂˇ, nĂˇdraĹľĂ­" }, "geometry": { "type": "Point", "coordinates": [ 16.6294424, 49.2202065 ] } },
{ "type": "Feature", "properties": { "osm_id": "3946486281", "code": 5621, "fclass": "bus_stop", "name": "LesnĂˇ, nĂˇdraĹľĂ­" }, "geometry": { "type": "Point", "coordinates": [ 16.6297404, 49.2205041 ] } },
{ "type": "Feature", "properties": { "osm_id": "674346394", "code": 5621, "fclass": "bus_stop", "name": "ZoologickĂˇ zahrada" }, "geometry": { "type": "Point", "coordinates": [ 16.5314046, 49.227852 ] } },
{ "type": "Feature", "properties": { "osm_id": "3949166459", "code": 5621, "fclass": "bus_stop", "name": "Houbalova" }, "geometry": { "type": "Point", "coordinates": [ 16.6741134, 49.2056985 ] } },
{ "type": "Feature", "properties": { "osm_id": "3949166461", "code": 5621, "fclass": "bus_stop", "name": "Houbalova" }, "geometry": { "type": "Point", "coordinates": [ 16.6739183, 49.2060053 ] } },
{ "type": "Feature", "properties": { "osm_id": "21289211", "code": 5621, "fclass": "bus_stop", "name": "PraĹľskĂˇ" }, "geometry": { "type": "Point", "coordinates": [ 16.5295552, 49.1736922 ] } },
{ "type": "Feature", "properties": { "osm_id": "21289366", "code": 5621, "fclass": "bus_stop", "name": "PraĹľskĂˇ" }, "geometry": { "type": "Point", "coordinates": [ 16.5313828, 49.1735124 ] } },
{ "type": "Feature", "properties": { "osm_id": "21308447", "code": 5621, "fclass": "bus_stop", "name": "SkalnĂ­" }, "geometry": { "type": "Point", "coordinates": [ 16.5343104, 49.1742212 ] } },
{ "type": "Feature", "properties": { "osm_id": "21310312", "code": 5621, "fclass": "bus_stop", "name": "U hĹ™iĹˇtÄ›" }, "geometry": { "type": "Point", "coordinates": [ 16.5585893, 49.1661297 ] } },
{ "type": "Feature", "properties": { "osm_id": "1251596141", "code": 5621, "fclass": "bus_stop", "name": "Ochoz u Brna, Na pastĂ˝Ĺ™kĂˇch" }, "geometry": { "type": "Point", "coordinates": [ 16.734066, 49.2510735 ] } },
{ "type": "Feature", "properties": { "osm_id": "1251596145", "code": 5621, "fclass": "bus_stop", "name": "Ochoz u Brna, rest. U VotrubĹŻ" }, "geometry": { "type": "Point", "coordinates": [ 16.7325008, 49.2554945 ] } },
{ "type": "Feature", "properties": { "osm_id": "1251596156", "code": 5621, "fclass": "bus_stop", "name": "Ochoz u Brna, Na pastĂ˝Ĺ™kĂˇch" }, "geometry": { "type": "Point", "coordinates": [ 16.7333603, 49.2517812 ] } },
{ "type": "Feature", "properties": { "osm_id": "3961964489", "code": 5621, "fclass": "bus_stop", "name": "KrejÄŤĂ­ho" }, "geometry": { "type": "Point", "coordinates": [ 16.6910285, 49.1774203 ] } },
{ "type": "Feature", "properties": { "osm_id": "21329314", "code": 5621, "fclass": "bus_stop", "name": "HorĂˇckĂ© nĂˇmÄ›stĂ­" }, "geometry": { "type": "Point", "coordinates": [ 16.5821977, 49.2482381 ] } },
{ "type": "Feature", "properties": { "osm_id": "1251596167", "code": 5621, "fclass": "bus_stop", "name": "Ochoz u Brna, rest. U VotrubĹŻ" }, "geometry": { "type": "Point", "coordinates": [ 16.732367, 49.2564585 ] } },
{ "type": "Feature", "properties": { "osm_id": "3961964490", "code": 5621, "fclass": "bus_stop", "name": "KrejÄŤĂ­ho" }, "geometry": { "type": "Point", "coordinates": [ 16.6907576, 49.1775127 ] } },
{ "type": "Feature", "properties": { "osm_id": "1251596192", "code": 5621, "fclass": "bus_stop", "name": "Ochoz u Brna, ob. ĂşĹ™ad" }, "geometry": { "type": "Point", "coordinates": [ 16.7365182, 49.2543909 ] } },
{ "type": "Feature", "properties": { "osm_id": "3961964491", "code": 5621, "fclass": "bus_stop", "name": "KĹ™ehlĂ­kova" }, "geometry": { "type": "Point", "coordinates": [ 16.6852267, 49.1747462 ] } },
{ "type": "Feature", "properties": { "osm_id": "3961964492", "code": 5621, "fclass": "bus_stop", "name": "KĹ™ehlĂ­kova" }, "geometry": { "type": "Point", "coordinates": [ 16.685162, 49.1748999 ] } },
{ "type": "Feature", "properties": { "osm_id": "21540411", "code": 5602, "fclass": "railway_halt", "name": "Babice nad Svitavou" }, "geometry": { "type": "Point", "coordinates": [ 16.6730628, 49.276711 ] } },
{ "type": "Feature", "properties": { "osm_id": "3961964493", "code": 5621, "fclass": "bus_stop", "name": "PĹ™emyslovo nĂˇmÄ›stĂ­" }, "geometry": { "type": "Point", "coordinates": [ 16.6873352, 49.1762691 ] } },
{ "type": "Feature", "properties": { "osm_id": "21540802", "code": 5621, "fclass": "bus_stop", "name": "Jemelkova" }, "geometry": { "type": "Point", "coordinates": [ 16.5486218, 49.1732413 ] } },
{ "type": "Feature", "properties": { "osm_id": "2716936987", "code": 5621, "fclass": "bus_stop", "name": "KavÄŤĂ­" }, "geometry": { "type": "Point", "coordinates": [ 16.5002785, 49.2168977 ] } },
{ "type": "Feature", "properties": { "osm_id": "3961964494", "code": 5621, "fclass": "bus_stop", "name": "PĹ™emyslovo nĂˇmÄ›stĂ­" }, "geometry": { "type": "Point", "coordinates": [ 16.6873014, 49.1764344 ] } },
{ "type": "Feature", "properties": { "osm_id": "3961964495", "code": 5621, "fclass": "bus_stop", "name": "Ĺ lapanice, HraniÄŤky" }, "geometry": { "type": "Point", "coordinates": [ 16.7048376, 49.1719002 ] } },
{ "type": "Feature", "properties": { "osm_id": "21626790", "code": 5621, "fclass": "bus_stop", "name": "StrĂˇĹľnĂ­" }, "geometry": { "type": "Point", "coordinates": [ 16.6038404, 49.1780847 ] } },
{ "type": "Feature", "properties": { "osm_id": "3961964496", "code": 5621, "fclass": "bus_stop", "name": "Ĺ lapanice, HraniÄŤky" }, "geometry": { "type": "Point", "coordinates": [ 16.7047702, 49.1721459 ] } },
{ "type": "Feature", "properties": { "osm_id": "21626802", "code": 5621, "fclass": "bus_stop", "name": "StrĂˇĹľnĂ­" }, "geometry": { "type": "Point", "coordinates": [ 16.6037296, 49.178525 ] } },
{ "type": "Feature", "properties": { "osm_id": "21626815", "code": 5621, "fclass": "bus_stop", "name": "HladĂ­kova" }, "geometry": { "type": "Point", "coordinates": [ 16.6258263, 49.1877839 ] } },
{ "type": "Feature", "properties": { "osm_id": "22114958", "code": 5602, "fclass": "railway_halt", "name": "ÄŚebĂ­n" }, "geometry": { "type": "Point", "coordinates": [ 16.4660769, 49.3193472 ] } },
{ "type": "Feature", "properties": { "osm_id": "22118286", "code": 5602, "fclass": "railway_halt", "name": "HradÄŤany" }, "geometry": { "type": "Point", "coordinates": [ 16.4372848, 49.3346215 ] } },
{ "type": "Feature", "properties": { "osm_id": "281133995", "code": 5621, "fclass": "bus_stop", "name": "Kupkova" }, "geometry": { "type": "Point", "coordinates": [ 16.6275823, 49.2364173 ] } },
{ "type": "Feature", "properties": { "osm_id": "281134003", "code": 5621, "fclass": "bus_stop", "name": "U Rozvodny" }, "geometry": { "type": "Point", "coordinates": [ 16.6273533, 49.2408788 ] } },
{ "type": "Feature", "properties": { "osm_id": "402618648", "code": 5621, "fclass": "bus_stop", "name": "MokrĂˇ-HorĂˇkov, sĂ­dliĹˇtÄ›" }, "geometry": { "type": "Point", "coordinates": [ 16.7519466, 49.2211632 ] } },
{ "type": "Feature", "properties": { "osm_id": "402618658", "code": 5621, "fclass": "bus_stop", "name": "MokrĂˇ-HorĂˇkov, sĂ­dliĹˇtÄ›" }, "geometry": { "type": "Point", "coordinates": [ 16.7516926, 49.2211427 ] } },
{ "type": "Feature", "properties": { "osm_id": "402755581", "code": 5621, "fclass": "bus_stop", "name": "MokrĂˇ-HorĂˇkov, MokrĂˇ" }, "geometry": { "type": "Point", "coordinates": [ 16.7514023, 49.2236281 ] } },
{ "type": "Feature", "properties": { "osm_id": "3967986666", "code": 5621, "fclass": "bus_stop", "name": "PodlomnĂ­" }, "geometry": { "type": "Point", "coordinates": [ 16.6553263, 49.1922285 ] } },
{ "type": "Feature", "properties": { "osm_id": "22462477", "code": 5621, "fclass": "bus_stop", "name": "ÄŚermĂˇkova" }, "geometry": { "type": "Point", "coordinates": [ 16.5656153, 49.1642977 ] } },
{ "type": "Feature", "properties": { "osm_id": "3967986667", "code": 5621, "fclass": "bus_stop", "name": "PodlomnĂ­" }, "geometry": { "type": "Point", "coordinates": [ 16.655042, 49.1925051 ] } },
{ "type": "Feature", "properties": { "osm_id": "4716850154", "code": 5601, "fclass": "railway_station", "name": "Adamov" }, "geometry": { "type": "Point", "coordinates": [ 16.6634542, 49.2953894 ] } },
{ "type": "Feature", "properties": { "osm_id": "4716850170", "code": 5602, "fclass": "railway_halt", "name": "Adamov zastĂˇvka" }, "geometry": { "type": "Point", "coordinates": [ 16.6497967, 49.3012318 ] } },
{ "type": "Feature", "properties": { "osm_id": "2278271797", "code": 5621, "fclass": "bus_stop", "name": "SpĂˇÄŤilova" }, "geometry": { "type": "Point", "coordinates": [ 16.6420363, 49.1885621 ] } },
{ "type": "Feature", "properties": { "osm_id": "4716850171", "code": 5621, "fclass": "bus_stop", "name": "Adamov, ĹľelezniÄŤnĂ­ zastĂˇvka" }, "geometry": { "type": "Point", "coordinates": [ 16.6505091, 49.3010049 ] } },
{ "type": "Feature", "properties": { "osm_id": "2278275123", "code": 5621, "fclass": "bus_stop", "name": "OlomouckĂˇ - u Ĺˇkoly" }, "geometry": { "type": "Point", "coordinates": [ 16.6525219, 49.1864987 ] } },
{ "type": "Feature", "properties": { "osm_id": "4716850172", "code": 5621, "fclass": "bus_stop", "name": "Adamov, ĹľelezniÄŤnĂ­ zastĂˇvka" }, "geometry": { "type": "Point", "coordinates": [ 16.6498815, 49.3016468 ] } },
{ "type": "Feature", "properties": { "osm_id": "2736220486", "code": 5621, "fclass": "bus_stop", "name": "OlomuÄŤany, Ĺˇkola" }, "geometry": { "type": "Point", "coordinates": [ 16.6699075, 49.3332201 ] } },
{ "type": "Feature", "properties": { "osm_id": "2278275177", "code": 5621, "fclass": "bus_stop", "name": "OlomouckĂˇ - u Ĺˇkoly" }, "geometry": { "type": "Point", "coordinates": [ 16.6529064, 49.1861657 ] } },
{ "type": "Feature", "properties": { "osm_id": "3969371812", "code": 5621, "fclass": "bus_stop", "name": "Arbesova" }, "geometry": { "type": "Point", "coordinates": [ 16.6304263, 49.2257585 ] } },
{ "type": "Feature", "properties": { "osm_id": "2736220497", "code": 5621, "fclass": "bus_stop", "name": "OlomuÄŤany, dolnĂ­ konec" }, "geometry": { "type": "Point", "coordinates": [ 16.6669117, 49.3371488 ] } },
{ "type": "Feature", "properties": { "osm_id": "2278275403", "code": 5621, "fclass": "bus_stop", "name": "StarĂ© LetiĹˇtÄ›" }, "geometry": { "type": "Point", "coordinates": [ 16.6593883, 49.1849017 ] } },
{ "type": "Feature", "properties": { "osm_id": "3969371813", "code": 5621, "fclass": "bus_stop", "name": "Arbesova" }, "geometry": { "type": "Point", "coordinates": [ 16.6308673, 49.2262901 ] } },
{ "type": "Feature", "properties": { "osm_id": "2278275761", "code": 5621, "fclass": "bus_stop", "name": "StarĂ© LetiĹˇtÄ›" }, "geometry": { "type": "Point", "coordinates": [ 16.6591922, 49.1850818 ] } },
{ "type": "Feature", "properties": { "osm_id": "3969371815", "code": 5621, "fclass": "bus_stop", "name": "BlaĹľkova" }, "geometry": { "type": "Point", "coordinates": [ 16.630995, 49.2295392 ] } },
{ "type": "Feature", "properties": { "osm_id": "3969371817", "code": 5621, "fclass": "bus_stop", "name": "BlaĹľkova" }, "geometry": { "type": "Point", "coordinates": [ 16.6310248, 49.2305933 ] } },
{ "type": "Feature", "properties": { "osm_id": "404790592", "code": 5621, "fclass": "bus_stop", "name": "TrĹľnĂ­" }, "geometry": { "type": "Point", "coordinates": [ 16.6321265, 49.1899236 ] } },
{ "type": "Feature", "properties": { "osm_id": "3969371818", "code": 5621, "fclass": "bus_stop", "name": "Brechtova" }, "geometry": { "type": "Point", "coordinates": [ 16.6293891, 49.2334325 ] } },
{ "type": "Feature", "properties": { "osm_id": "405286993", "code": 5621, "fclass": "bus_stop", "name": "Radostice, koupaliĹˇtÄ›" }, "geometry": { "type": "Point", "coordinates": [ 16.4678688, 49.1381129 ] } },
{ "type": "Feature", "properties": { "osm_id": "3969371822", "code": 5621, "fclass": "bus_stop", "name": "Heleny MalĂ­Ĺ™ovĂ©" }, "geometry": { "type": "Point", "coordinates": [ 16.6291075, 49.2230578 ] } },
{ "type": "Feature", "properties": { "osm_id": "405286998", "code": 5621, "fclass": "bus_stop", "name": "Radostice, koupaliĹˇtÄ›" }, "geometry": { "type": "Point", "coordinates": [ 16.4679164, 49.1381418 ] } },
{ "type": "Feature", "properties": { "osm_id": "3969371823", "code": 5621, "fclass": "bus_stop", "name": "Heleny MalĂ­Ĺ™ovĂ©" }, "geometry": { "type": "Point", "coordinates": [ 16.6295904, 49.2235314 ] } },
{ "type": "Feature", "properties": { "osm_id": "405287002", "code": 5621, "fclass": "bus_stop", "name": "Radostice, mlĂ˝nskĂˇ silnice" }, "geometry": { "type": "Point", "coordinates": [ 16.4748873, 49.1355521 ] } },
{ "type": "Feature", "properties": { "osm_id": "3969442051", "code": 5621, "fclass": "bus_stop", "name": "Poliklinika LesnĂˇ" }, "geometry": { "type": "Point", "coordinates": [ 16.6256669, 49.2223855 ] } },
{ "type": "Feature", "properties": { "osm_id": "405287005", "code": 5621, "fclass": "bus_stop", "name": "Radostice, mlĂ˝nskĂˇ silnice" }, "geometry": { "type": "Point", "coordinates": [ 16.4749314, 49.1355545 ] } },
{ "type": "Feature", "properties": { "osm_id": "3969442053", "code": 5621, "fclass": "bus_stop", "name": "Poliklinika LesnĂˇ" }, "geometry": { "type": "Point", "coordinates": [ 16.6256605, 49.2225538 ] } },
{ "type": "Feature", "properties": { "osm_id": "3971770049", "code": 5621, "fclass": "bus_stop", "name": "BluÄŤina, obch.stĹ™edisko" }, "geometry": { "type": "Point", "coordinates": [ 16.645028, 49.0561347 ] } },
{ "type": "Feature", "properties": { "osm_id": "3971770051", "code": 5621, "fclass": "bus_stop", "name": "BluÄŤina, nĂˇm." }, "geometry": { "type": "Point", "coordinates": [ 16.6464764, 49.0548446 ] } },
{ "type": "Feature", "properties": { "osm_id": "3971770052", "code": 5621, "fclass": "bus_stop", "name": "BluÄŤina, nĂˇm." }, "geometry": { "type": "Point", "coordinates": [ 16.6465488, 49.0549324 ] } },
{ "type": "Feature", "properties": { "osm_id": "3971800422", "code": 5621, "fclass": "bus_stop", "name": "BluÄŤina, rozc.2.0" }, "geometry": { "type": "Point", "coordinates": [ 16.6617953, 49.0525403 ] } },
{ "type": "Feature", "properties": { "osm_id": "3971800423", "code": 5621, "fclass": "bus_stop", "name": "BluÄŤina, rozc.2.0" }, "geometry": { "type": "Point", "coordinates": [ 16.6616408, 49.0526176 ] } },
{ "type": "Feature", "properties": { "osm_id": "408607531", "code": 5621, "fclass": "bus_stop", "name": "Ĺ kroupova" }, "geometry": { "type": "Point", "coordinates": [ 16.6478754, 49.1919967 ] } },
{ "type": "Feature", "properties": { "osm_id": "3973110969", "code": 5621, "fclass": "bus_stop", "name": "Popovice, Ĺľel.st." }, "geometry": { "type": "Point", "coordinates": [ 16.6073156, 49.1031776 ] } },
{ "type": "Feature", "properties": { "osm_id": "3973110970", "code": 5621, "fclass": "bus_stop", "name": "Popovice, Ĺľel.st." }, "geometry": { "type": "Point", "coordinates": [ 16.6076484, 49.10323 ] } },
{ "type": "Feature", "properties": { "osm_id": "3973110973", "code": 5621, "fclass": "bus_stop", "name": "Popovice, u tratÄ›" }, "geometry": { "type": "Point", "coordinates": [ 16.6089429, 49.103855 ] } },
{ "type": "Feature", "properties": { "osm_id": "3973110974", "code": 5621, "fclass": "bus_stop", "name": "Popovice, u tratÄ›" }, "geometry": { "type": "Point", "coordinates": [ 16.6101585, 49.1042849 ] } },
{ "type": "Feature", "properties": { "osm_id": "3973110975", "code": 5621, "fclass": "bus_stop", "name": "Popovice" }, "geometry": { "type": "Point", "coordinates": [ 16.6148793, 49.1066106 ] } },
{ "type": "Feature", "properties": { "osm_id": "3973110978", "code": 5621, "fclass": "bus_stop", "name": "ModĹ™ice, Bobrava, motel" }, "geometry": { "type": "Point", "coordinates": [ 16.6014315, 49.1049954 ] } },
{ "type": "Feature", "properties": { "osm_id": "3973110980", "code": 5621, "fclass": "bus_stop", "name": "ModĹ™ice, Bobrava, stĹ™ed" }, "geometry": { "type": "Point", "coordinates": [ 16.6014735, 49.1068912 ] } },
{ "type": "Feature", "properties": { "osm_id": "282273119", "code": 5621, "fclass": "bus_stop", "name": "Ĺ˝itnĂˇ" }, "geometry": { "type": "Point", "coordinates": [ 16.5885833, 49.2403528 ] } },
{ "type": "Feature", "properties": { "osm_id": "282273126", "code": 5621, "fclass": "bus_stop", "name": "LetovickĂˇ" }, "geometry": { "type": "Point", "coordinates": [ 16.5875785, 49.2462566 ] } },
{ "type": "Feature", "properties": { "osm_id": "282337240", "code": 5621, "fclass": "bus_stop", "name": "MaĹ™Ă­kova" }, "geometry": { "type": "Point", "coordinates": [ 16.5793394, 49.2594758 ] } },
{ "type": "Feature", "properties": { "osm_id": "282337316", "code": 5621, "fclass": "bus_stop", "name": "Jehnice" }, "geometry": { "type": "Point", "coordinates": [ 16.5957993, 49.2714359 ] } },
{ "type": "Feature", "properties": { "osm_id": "282337882", "code": 5621, "fclass": "bus_stop", "name": "PodzimnĂ­" }, "geometry": { "type": "Point", "coordinates": [ 16.652946, 49.2216289 ] } },
{ "type": "Feature", "properties": { "osm_id": "1272422507", "code": 5621, "fclass": "bus_stop", "name": "KĹ™tiny, hĂˇjenka na LukĂˇch" }, "geometry": { "type": "Point", "coordinates": [ 16.7445104, 49.3186297 ] } },
{ "type": "Feature", "properties": { "osm_id": "3977126150", "code": 5621, "fclass": "bus_stop", "name": "Zaoralova" }, "geometry": { "type": "Point", "coordinates": [ 16.6788033, 49.200378 ] } },
{ "type": "Feature", "properties": { "osm_id": "3977126151", "code": 5621, "fclass": "bus_stop", "name": "Zaoralova" }, "geometry": { "type": "Point", "coordinates": [ 16.6795948, 49.200189 ] } },
{ "type": "Feature", "properties": { "osm_id": "1273192142", "code": 5621, "fclass": "bus_stop", "name": "KĹ™tiny, obecnĂ­ ĂşĹ™ad" }, "geometry": { "type": "Point", "coordinates": [ 16.744193, 49.296905 ] } },
{ "type": "Feature", "properties": { "osm_id": "3977187115", "code": 5621, "fclass": "bus_stop", "name": "ĹĂ­pskĂˇ" }, "geometry": { "type": "Point", "coordinates": [ 16.6822313, 49.1728839 ] } },
{ "type": "Feature", "properties": { "osm_id": "1273192183", "code": 5621, "fclass": "bus_stop", "name": "KĹ™tiny, obecnĂ­ ĂşĹ™ad" }, "geometry": { "type": "Point", "coordinates": [ 16.7434308, 49.29705 ] } },
{ "type": "Feature", "properties": { "osm_id": "3977187116", "code": 5621, "fclass": "bus_stop", "name": "ĹĂ­pskĂˇ" }, "geometry": { "type": "Point", "coordinates": [ 16.6821794, 49.1724933 ] } },
{ "type": "Feature", "properties": { "osm_id": "3977668570", "code": 5621, "fclass": "bus_stop", "name": "DrĂˇĹľnĂ­" }, "geometry": { "type": "Point", "coordinates": [ 16.685407, 49.1674661 ] } },
{ "type": "Feature", "properties": { "osm_id": "3978236784", "code": 5621, "fclass": "bus_stop", "name": "Na kopcĂ­ch" }, "geometry": { "type": "Point", "coordinates": [ 16.6034089, 49.2346028 ] } },
{ "type": "Feature", "properties": { "osm_id": "705681633", "code": 5621, "fclass": "bus_stop", "name": "HradÄŤany, ĹľelezniÄŤnĂ­ stanice" }, "geometry": { "type": "Point", "coordinates": [ 16.4382637, 49.3330249 ] } },
{ "type": "Feature", "properties": { "osm_id": "3978656830", "code": 5621, "fclass": "bus_stop", "name": "Dohnalova" }, "geometry": { "type": "Point", "coordinates": [ 16.617761, 49.2496544 ] } },
{ "type": "Feature", "properties": { "osm_id": "3978656831", "code": 5621, "fclass": "bus_stop", "name": "Dohnalova" }, "geometry": { "type": "Point", "coordinates": [ 16.6189627, 49.2511408 ] } },
{ "type": "Feature", "properties": { "osm_id": "1825265556", "code": 5621, "fclass": "bus_stop", "name": "OĹ™echov, Kerendov" }, "geometry": { "type": "Point", "coordinates": [ 16.5259402, 49.1176951 ] } },
{ "type": "Feature", "properties": { "osm_id": "1825265678", "code": 5621, "fclass": "bus_stop", "name": "OĹ™echov, Kerendov" }, "geometry": { "type": "Point", "coordinates": [ 16.5258116, 49.1176617 ] } },
{ "type": "Feature", "properties": { "osm_id": "286264394", "code": 5621, "fclass": "bus_stop", "name": "SadovĂˇ" }, "geometry": { "type": "Point", "coordinates": [ 16.6035148, 49.231493 ] } },
{ "type": "Feature", "properties": { "osm_id": "286285224", "code": 5621, "fclass": "bus_stop", "name": "Ĺ tÄ›pĂˇnkova" }, "geometry": { "type": "Point", "coordinates": [ 16.6232656, 49.2513517 ] } },
{ "type": "Feature", "properties": { "osm_id": "3979775190", "code": 5621, "fclass": "bus_stop", "name": "Rajhradice, obalovna" }, "geometry": { "type": "Point", "coordinates": [ 16.6516747, 49.0963496 ] } },
{ "type": "Feature", "properties": { "osm_id": "286285243", "code": 5621, "fclass": "bus_stop", "name": "PanskĂˇ LĂ­cha" }, "geometry": { "type": "Point", "coordinates": [ 16.6248942, 49.2451034 ] } },
{ "type": "Feature", "properties": { "osm_id": "3979775191", "code": 5621, "fclass": "bus_stop", "name": "Rajhradice, obalovna" }, "geometry": { "type": "Point", "coordinates": [ 16.6516131, 49.0964465 ] } },
{ "type": "Feature", "properties": { "osm_id": "3979775194", "code": 5621, "fclass": "bus_stop", "name": "Rajhradice, ObĂš" }, "geometry": { "type": "Point", "coordinates": [ 16.6339672, 49.0915737 ] } },
{ "type": "Feature", "properties": { "osm_id": "3979775195", "code": 5621, "fclass": "bus_stop", "name": "Rajhradice, ObĂš" }, "geometry": { "type": "Point", "coordinates": [ 16.6338223, 49.0915111 ] } },
{ "type": "Feature", "properties": { "osm_id": "3979838465", "code": 5621, "fclass": "bus_stop", "name": "MikulÄŤickĂˇ" }, "geometry": { "type": "Point", "coordinates": [ 16.6837641, 49.1785004 ] } },
{ "type": "Feature", "properties": { "osm_id": "3979838571", "code": 5621, "fclass": "bus_stop", "name": "MikulÄŤickĂˇ" }, "geometry": { "type": "Point", "coordinates": [ 16.6849924, 49.1782 ] } },
{ "type": "Feature", "properties": { "osm_id": "287034442", "code": 5621, "fclass": "bus_stop", "name": "RozĂˇrka" }, "geometry": { "type": "Point", "coordinates": [ 16.6227397, 49.2543147 ] } },
{ "type": "Feature", "properties": { "osm_id": "3612276650", "code": 5621, "fclass": "bus_stop", "name": "ÄŚernovickĂˇ terasa II" }, "geometry": { "type": "Point", "coordinates": [ 16.6761587, 49.1670746 ] } },
{ "type": "Feature", "properties": { "osm_id": "3980502798", "code": 5621, "fclass": "bus_stop", "name": "StarĂ© ÄŚernovice" }, "geometry": { "type": "Point", "coordinates": [ 16.6481317, 49.1699307 ] } },
{ "type": "Feature", "properties": { "osm_id": "4729268137", "code": 5621, "fclass": "bus_stop", "name": "BoĹ™etickĂˇ" }, "geometry": { "type": "Point", "coordinates": [ 16.6578193, 49.2015038 ] } },
{ "type": "Feature", "properties": { "osm_id": "3612276651", "code": 5621, "fclass": "bus_stop", "name": "ÄŚernovickĂˇ terasa II" }, "geometry": { "type": "Point", "coordinates": [ 16.675341, 49.1683528 ] } },
{ "type": "Feature", "properties": { "osm_id": "3980502799", "code": 5621, "fclass": "bus_stop", "name": "VinohradskĂˇ" }, "geometry": { "type": "Point", "coordinates": [ 16.6456748, 49.1725177 ] } },
{ "type": "Feature", "properties": { "osm_id": "4729268138", "code": 5621, "fclass": "bus_stop", "name": "BoĹ™etickĂˇ" }, "geometry": { "type": "Point", "coordinates": [ 16.6592549, 49.2013099 ] } },
{ "type": "Feature", "properties": { "osm_id": "3980502800", "code": 5621, "fclass": "bus_stop", "name": "VinohradskĂˇ" }, "geometry": { "type": "Point", "coordinates": [ 16.6453775, 49.1729296 ] } },
{ "type": "Feature", "properties": { "osm_id": "3980502802", "code": 5621, "fclass": "bus_stop", "name": "HĂˇjeckĂˇ" }, "geometry": { "type": "Point", "coordinates": [ 16.6424612, 49.1745469 ] } },
{ "type": "Feature", "properties": { "osm_id": "3980502803", "code": 5621, "fclass": "bus_stop", "name": "HĂˇjeckĂˇ" }, "geometry": { "type": "Point", "coordinates": [ 16.6417888, 49.1748315 ] } },
{ "type": "Feature", "properties": { "osm_id": "3980513093", "code": 5621, "fclass": "bus_stop", "name": "StarĂ© ÄŚernovice" }, "geometry": { "type": "Point", "coordinates": [ 16.6481317, 49.1699307 ] } },
{ "type": "Feature", "properties": { "osm_id": "3980513094", "code": 5621, "fclass": "bus_stop", "name": "VinohradskĂˇ" }, "geometry": { "type": "Point", "coordinates": [ 16.6456748, 49.1725177 ] } },
{ "type": "Feature", "properties": { "osm_id": "3980513095", "code": 5621, "fclass": "bus_stop", "name": "VinohradskĂˇ" }, "geometry": { "type": "Point", "coordinates": [ 16.6453775, 49.1729296 ] } },
{ "type": "Feature", "properties": { "osm_id": "3980513096", "code": 5621, "fclass": "bus_stop", "name": "HĂˇjeckĂˇ" }, "geometry": { "type": "Point", "coordinates": [ 16.6424612, 49.1745469 ] } },
{ "type": "Feature", "properties": { "osm_id": "3980513097", "code": 5621, "fclass": "bus_stop", "name": "HĂˇjeckĂˇ" }, "geometry": { "type": "Point", "coordinates": [ 16.6417888, 49.1748315 ] } },
{ "type": "Feature", "properties": { "osm_id": "3980701221", "code": 5621, "fclass": "bus_stop", "name": "HanĂˇckĂˇ" }, "geometry": { "type": "Point", "coordinates": [ 16.6674196, 49.1466803 ] } },
{ "type": "Feature", "properties": { "osm_id": "3980701222", "code": 5621, "fclass": "bus_stop", "name": "HanĂˇckĂˇ" }, "geometry": { "type": "Point", "coordinates": [ 16.6675308, 49.1470454 ] } },
{ "type": "Feature", "properties": { "osm_id": "3980701227", "code": 5621, "fclass": "bus_stop", "name": "HanĂˇckĂˇ" }, "geometry": { "type": "Point", "coordinates": [ 16.6674576, 49.1478016 ] } },
{ "type": "Feature", "properties": { "osm_id": "3980701228", "code": 5621, "fclass": "bus_stop", "name": "HanĂˇckĂˇ" }, "geometry": { "type": "Point", "coordinates": [ 16.6663829, 49.1478375 ] } },
{ "type": "Feature", "properties": { "osm_id": "3980701615", "code": 5621, "fclass": "bus_stop", "name": "RevoluÄŤnĂ­" }, "geometry": { "type": "Point", "coordinates": [ 16.6630231, 49.1494062 ] } },
{ "type": "Feature", "properties": { "osm_id": "418372845", "code": 5621, "fclass": "bus_stop", "name": "Brechtova" }, "geometry": { "type": "Point", "coordinates": [ 16.6292684, 49.2340895 ] } },
{ "type": "Feature", "properties": { "osm_id": "418372846", "code": 5621, "fclass": "bus_stop", "name": "ProvaznĂ­kova" }, "geometry": { "type": "Point", "coordinates": [ 16.6240551, 49.2144556 ] } },
{ "type": "Feature", "properties": { "osm_id": "418372847", "code": 5621, "fclass": "bus_stop", "name": "LesnickĂˇ" }, "geometry": { "type": "Point", "coordinates": [ 16.6190693, 49.2130595 ] } },
{ "type": "Feature", "properties": { "osm_id": "3981760679", "code": 5621, "fclass": "bus_stop", "name": "HĂ¶grova" }, "geometry": { "type": "Point", "coordinates": [ 16.6041788, 49.2291374 ] } },
{ "type": "Feature", "properties": { "osm_id": "418372848", "code": 5621, "fclass": "bus_stop", "name": "ZimnĂ­ stadion" }, "geometry": { "type": "Point", "coordinates": [ 16.6094751, 49.2095402 ] } },
{ "type": "Feature", "properties": { "osm_id": "3981760717", "code": 5621, "fclass": "bus_stop", "name": null }, "geometry": { "type": "Point", "coordinates": [ 16.6079942, 49.2313002 ] } },
{ "type": "Feature", "properties": { "osm_id": "418372849", "code": 5621, "fclass": "bus_stop", "name": "NC KrĂˇlovo Pole" }, "geometry": { "type": "Point", "coordinates": [ 16.6071267, 49.2175798 ] } },
{ "type": "Feature", "properties": { "osm_id": "287799923", "code": 5621, "fclass": "bus_stop", "name": "U Buku" }, "geometry": { "type": "Point", "coordinates": [ 16.6302903, 49.276891 ] } },
{ "type": "Feature", "properties": { "osm_id": "3981760719", "code": 5621, "fclass": "bus_stop", "name": null }, "geometry": { "type": "Point", "coordinates": [ 16.6082354, 49.2316906 ] } },
{ "type": "Feature", "properties": { "osm_id": "418372850", "code": 5621, "fclass": "bus_stop", "name": "U tunĂ˝lku" }, "geometry": { "type": "Point", "coordinates": [ 16.6177222, 49.2227049 ] } },
{ "type": "Feature", "properties": { "osm_id": "287799994", "code": 5621, "fclass": "bus_stop", "name": null }, "geometry": { "type": "Point", "coordinates": [ 16.6308162, 49.2882056 ] } },
{ "type": "Feature", "properties": { "osm_id": "3981760756", "code": 5621, "fclass": "bus_stop", "name": null }, "geometry": { "type": "Point", "coordinates": [ 16.6042601, 49.2340211 ] } },
{ "type": "Feature", "properties": { "osm_id": "418372851", "code": 5621, "fclass": "bus_stop", "name": "DiviĹˇova ÄŤtvrĹĄ" }, "geometry": { "type": "Point", "coordinates": [ 16.6133952, 49.2235113 ] } },
{ "type": "Feature", "properties": { "osm_id": "287800086", "code": 5621, "fclass": "bus_stop", "name": "Vranov, kĹ™iĹľovatka" }, "geometry": { "type": "Point", "coordinates": [ 16.6124244, 49.3102266 ] } },
{ "type": "Feature", "properties": { "osm_id": "3981761260", "code": 5621, "fclass": "bus_stop", "name": null }, "geometry": { "type": "Point", "coordinates": [ 16.6039297, 49.2341461 ] } },
{ "type": "Feature", "properties": { "osm_id": "418372852", "code": 5621, "fclass": "bus_stop", "name": "KrĂˇlovepolskĂˇ strojĂ­rna" }, "geometry": { "type": "Point", "coordinates": [ 16.6068934, 49.2240307 ] } },
{ "type": "Feature", "properties": { "osm_id": "418372854", "code": 5621, "fclass": "bus_stop", "name": "MojmĂ­rovo nĂˇmÄ›stĂ­" }, "geometry": { "type": "Point", "coordinates": [ 16.5971128, 49.225887 ] } },
{ "type": "Feature", "properties": { "osm_id": "418372855", "code": 5621, "fclass": "bus_stop", "name": "HĂ¶grova" }, "geometry": { "type": "Point", "coordinates": [ 16.6045468, 49.2281076 ] } },
{ "type": "Feature", "properties": { "osm_id": "418384489", "code": 5621, "fclass": "bus_stop", "name": "ĂšdolĂ­ÄŤek" }, "geometry": { "type": "Point", "coordinates": [ 16.6446178, 49.2067579 ] } },
{ "type": "Feature", "properties": { "osm_id": "1837290040", "code": 5621, "fclass": "bus_stop", "name": "PodveskĂˇ" }, "geometry": { "type": "Point", "coordinates": [ 16.5589826, 49.2176241 ] } },
{ "type": "Feature", "properties": { "osm_id": "418384491", "code": 5621, "fclass": "bus_stop", "name": "ĂšdolĂ­ÄŤek" }, "geometry": { "type": "Point", "coordinates": [ 16.6455953, 49.2072654 ] } },
{ "type": "Feature", "properties": { "osm_id": "1837290050", "code": 5621, "fclass": "bus_stop", "name": "PodveskĂˇ" }, "geometry": { "type": "Point", "coordinates": [ 16.5581806, 49.2176118 ] } },
{ "type": "Feature", "properties": { "osm_id": "418384492", "code": 5621, "fclass": "bus_stop", "name": "AkĂˇtky" }, "geometry": { "type": "Point", "coordinates": [ 16.6485855, 49.2084212 ] } },
{ "type": "Feature", "properties": { "osm_id": "418384493", "code": 5621, "fclass": "bus_stop", "name": "AkĂˇtky" }, "geometry": { "type": "Point", "coordinates": [ 16.6487037, 49.2087589 ] } },
{ "type": "Feature", "properties": { "osm_id": "418384494", "code": 5621, "fclass": "bus_stop", "name": "VlÄŤnovskĂˇ" }, "geometry": { "type": "Point", "coordinates": [ 16.6596592, 49.2111837 ] } },
{ "type": "Feature", "properties": { "osm_id": "288178491", "code": 5621, "fclass": "bus_stop", "name": "PĂˇlavskĂ© nĂˇmÄ›stĂ­" }, "geometry": { "type": "Point", "coordinates": [ 16.6580629, 49.2054121 ] } },
{ "type": "Feature", "properties": { "osm_id": "418384495", "code": 5621, "fclass": "bus_stop", "name": "VlÄŤnovskĂˇ" }, "geometry": { "type": "Point", "coordinates": [ 16.6598034, 49.211017 ] } },
{ "type": "Feature", "properties": { "osm_id": "418384496", "code": 5621, "fclass": "bus_stop", "name": "PruĹˇĂˇneckĂˇ" }, "geometry": { "type": "Point", "coordinates": [ 16.6634299, 49.2094907 ] } },
{ "type": "Feature", "properties": { "osm_id": "418384497", "code": 5621, "fclass": "bus_stop", "name": "PruĹˇĂˇneckĂˇ" }, "geometry": { "type": "Point", "coordinates": [ 16.6634747, 49.2082411 ] } },
{ "type": "Feature", "properties": { "osm_id": "418384498", "code": 5621, "fclass": "bus_stop", "name": "MikulovskĂˇ" }, "geometry": { "type": "Point", "coordinates": [ 16.6657937, 49.2055095 ] } },
{ "type": "Feature", "properties": { "osm_id": "418384499", "code": 5621, "fclass": "bus_stop", "name": "MalĂˇ Klajdovka" }, "geometry": { "type": "Point", "coordinates": [ 16.6627642, 49.198924 ] } },
{ "type": "Feature", "properties": { "osm_id": "418384505", "code": 5621, "fclass": "bus_stop", "name": "Otakara Ĺ evÄŤĂ­ka" }, "geometry": { "type": "Point", "coordinates": [ 16.6463298, 49.1948056 ] } },
{ "type": "Feature", "properties": { "osm_id": "2300136728", "code": 5621, "fclass": "bus_stop", "name": "PsychyatrickĂˇ lĂ©ÄŤebna" }, "geometry": { "type": "Point", "coordinates": [ 16.6364694, 49.1850658 ] } },
{ "type": "Feature", "properties": { "osm_id": "418384506", "code": 5621, "fclass": "bus_stop", "name": "GajdoĹˇova" }, "geometry": { "type": "Point", "coordinates": [ 16.6460437, 49.1983156 ] } },
{ "type": "Feature", "properties": { "osm_id": "418384507", "code": 5621, "fclass": "bus_stop", "name": "Svatoplukova" }, "geometry": { "type": "Point", "coordinates": [ 16.6414035, 49.2052095 ] } },
{ "type": "Feature", "properties": { "osm_id": "418384508", "code": 5621, "fclass": "bus_stop", "name": "Ĺ˝idenice, kasĂˇrna" }, "geometry": { "type": "Point", "coordinates": [ 16.6423971, 49.2078822 ] } },
{ "type": "Feature", "properties": { "osm_id": "418384509", "code": 5621, "fclass": "bus_stop", "name": "Ĺ˝idenice, kasĂˇrna" }, "geometry": { "type": "Point", "coordinates": [ 16.6420508, 49.2080722 ] } },
{ "type": "Feature", "properties": { "osm_id": "418384512", "code": 5622, "fclass": "bus_station", "name": "StarĂˇ osada" }, "geometry": { "type": "Point", "coordinates": [ 16.6419699, 49.2023142 ] } },
{ "type": "Feature", "properties": { "osm_id": "418384513", "code": 5621, "fclass": "bus_stop", "name": "PodsednickĂˇ" }, "geometry": { "type": "Point", "coordinates": [ 16.6457857, 49.2091183 ] } },
{ "type": "Feature", "properties": { "osm_id": "716357768", "code": 5621, "fclass": "bus_stop", "name": "ZoologickĂˇ zahrada" }, "geometry": { "type": "Point", "coordinates": [ 16.5314638, 49.2275479 ] } },
{ "type": "Feature", "properties": { "osm_id": "418384514", "code": 5621, "fclass": "bus_stop", "name": "Kulkova" }, "geometry": { "type": "Point", "coordinates": [ 16.6482048, 49.2115267 ] } },
{ "type": "Feature", "properties": { "osm_id": "418387492", "code": 5621, "fclass": "bus_stop", "name": "ZoologickĂˇ zahrada" }, "geometry": { "type": "Point", "coordinates": [ 16.5316477, 49.2279097 ] } },
{ "type": "Feature", "properties": { "osm_id": "418387495", "code": 5621, "fclass": "bus_stop", "name": "NĂˇmÄ›stĂ­ 28. dubna" }, "geometry": { "type": "Point", "coordinates": [ 16.5311056, 49.2252253 ] } },
{ "type": "Feature", "properties": { "osm_id": "418387496", "code": 5621, "fclass": "bus_stop", "name": "VondrĂˇkova" }, "geometry": { "type": "Point", "coordinates": [ 16.5284365, 49.2213351 ] } },
{ "type": "Feature", "properties": { "osm_id": "2302194550", "code": 5621, "fclass": "bus_stop", "name": "Bauerova" }, "geometry": { "type": "Point", "coordinates": [ 16.5744294, 49.1860471 ] } },
{ "type": "Feature", "properties": { "osm_id": "418387497", "code": 5621, "fclass": "bus_stop", "name": "LaĹˇtĹŻvkova" }, "geometry": { "type": "Point", "coordinates": [ 16.5257141, 49.2205041 ] } },
{ "type": "Feature", "properties": { "osm_id": "418387498", "code": 5621, "fclass": "bus_stop", "name": "Wollmanova" }, "geometry": { "type": "Point", "coordinates": [ 16.5223976, 49.2222734 ] } },
{ "type": "Feature", "properties": { "osm_id": "418387500", "code": 5621, "fclass": "bus_stop", "name": "Ruda" }, "geometry": { "type": "Point", "coordinates": [ 16.50251, 49.2204563 ] } },
{ "type": "Feature", "properties": { "osm_id": "2302915968", "code": 5621, "fclass": "bus_stop", "name": "UniverzitnĂ­ kampus" }, "geometry": { "type": "Point", "coordinates": [ 16.5682632, 49.1778669 ] } },
{ "type": "Feature", "properties": { "osm_id": "2785373796", "code": 5602, "fclass": "railway_halt", "name": "Rajhrad" }, "geometry": { "type": "Point", "coordinates": [ 16.6052716, 49.0839531 ] } },
{ "type": "Feature", "properties": { "osm_id": "2303461756", "code": 5621, "fclass": "bus_stop", "name": "Bauerova" }, "geometry": { "type": "Point", "coordinates": [ 16.5748611, 49.1854846 ] } },
{ "type": "Feature", "properties": { "osm_id": "2785373797", "code": 5602, "fclass": "railway_halt", "name": "Rajhrad" }, "geometry": { "type": "Point", "coordinates": [ 16.6053523, 49.0853304 ] } },
{ "type": "Feature", "properties": { "osm_id": "2303461757", "code": 5621, "fclass": "bus_stop", "name": "RiviĂ©ra" }, "geometry": { "type": "Point", "coordinates": [ 16.5720862, 49.1870583 ] } },
{ "type": "Feature", "properties": { "osm_id": "2785383227", "code": 5602, "fclass": "railway_halt", "name": "Vojkovice nad Svratkou" }, "geometry": { "type": "Point", "coordinates": [ 16.5972973, 49.0559129 ] } },
{ "type": "Feature", "properties": { "osm_id": "2303461758", "code": 5621, "fclass": "bus_stop", "name": "RiviĂ©ra" }, "geometry": { "type": "Point", "coordinates": [ 16.5709923, 49.1877363 ] } },
{ "type": "Feature", "properties": { "osm_id": "2785383228", "code": 5602, "fclass": "railway_halt", "name": "Vojkovice nad Svratkou" }, "geometry": { "type": "Point", "coordinates": [ 16.5980085, 49.0572556 ] } },
{ "type": "Feature", "properties": { "osm_id": "3989223810", "code": 5621, "fclass": "bus_stop", "name": "Rajhrad, GEIS" }, "geometry": { "type": "Point", "coordinates": [ 16.5820292, 49.085405 ] } },
{ "type": "Feature", "properties": { "osm_id": "3990273545", "code": 5621, "fclass": "bus_stop", "name": "KonopnĂˇ" }, "geometry": { "type": "Point", "coordinates": [ 16.6217775, 49.179494 ] } },
{ "type": "Feature", "properties": { "osm_id": "3277360833", "code": 5621, "fclass": "bus_stop", "name": "Kosmonautu" }, "geometry": { "type": "Point", "coordinates": [ 16.5681231, 49.1669757 ] } },
{ "type": "Feature", "properties": { "osm_id": "1325446230", "code": 5621, "fclass": "bus_stop", "name": "MikulovskĂˇ" }, "geometry": { "type": "Point", "coordinates": [ 16.6647818, 49.2063174 ] } },
{ "type": "Feature", "properties": { "osm_id": "2812155916", "code": 5621, "fclass": "bus_stop", "name": "VĹˇetiÄŤkova" }, "geometry": { "type": "Point", "coordinates": [ 16.589179, 49.1986004 ] } },
{ "type": "Feature", "properties": { "osm_id": "2812160920", "code": 5621, "fclass": "bus_stop", "name": "NĂˇmÄ›stĂ­ MĂ­ru" }, "geometry": { "type": "Point", "coordinates": [ 16.5819619, 49.2019083 ] } },
{ "type": "Feature", "properties": { "osm_id": "3997809511", "code": 5621, "fclass": "bus_stop", "name": "ZĂˇhumenice" }, "geometry": { "type": "Point", "coordinates": [ 16.6181249, 49.1639958 ] } },
{ "type": "Feature", "properties": { "osm_id": "2812164573", "code": 5621, "fclass": "bus_stop", "name": "Heinrichova" }, "geometry": { "type": "Point", "coordinates": [ 16.5844772, 49.2004305 ] } },
{ "type": "Feature", "properties": { "osm_id": "289661168", "code": 5621, "fclass": "bus_stop", "name": "Babice nad Svitavou, hornĂ­ zastĂˇvka" }, "geometry": { "type": "Point", "coordinates": [ 16.6969634, 49.2844228 ] } },
{ "type": "Feature", "properties": { "osm_id": "3997809512", "code": 5621, "fclass": "bus_stop", "name": "KĹˇĂ­rova" }, "geometry": { "type": "Point", "coordinates": [ 16.6158117, 49.171721 ] } },
{ "type": "Feature", "properties": { "osm_id": "2812209706", "code": 5621, "fclass": "bus_stop", "name": "Grohova" }, "geometry": { "type": "Point", "coordinates": [ 16.5993348, 49.201378 ] } },
{ "type": "Feature", "properties": { "osm_id": "289661200", "code": 5621, "fclass": "bus_stop", "name": "Kolonka" }, "geometry": { "type": "Point", "coordinates": [ 16.666373, 49.2924178 ] } },
{ "type": "Feature", "properties": { "osm_id": "3997900770", "code": 5621, "fclass": "bus_stop", "name": "KomenskĂ©ho nĂˇmÄ›stĂ­" }, "geometry": { "type": "Point", "coordinates": [ 16.6026865, 49.1971238 ] } },
{ "type": "Feature", "properties": { "osm_id": "2812210462", "code": 5621, "fclass": "bus_stop", "name": "Grohova" }, "geometry": { "type": "Point", "coordinates": [ 16.5997709, 49.201147 ] } },
{ "type": "Feature", "properties": { "osm_id": "3997933857", "code": 5621, "fclass": "bus_stop", "name": "KĹˇĂ­rova" }, "geometry": { "type": "Point", "coordinates": [ 16.615784, 49.1713276 ] } },
{ "type": "Feature", "properties": { "osm_id": "2812215377", "code": 5621, "fclass": "bus_stop", "name": "KoneÄŤnĂ©ho nĂˇmÄ›stĂ­" }, "geometry": { "type": "Point", "coordinates": [ 16.595468, 49.2044787 ] } },
{ "type": "Feature", "properties": { "osm_id": "2812232969", "code": 5621, "fclass": "bus_stop", "name": "Tererova" }, "geometry": { "type": "Point", "coordinates": [ 16.5891991, 49.2159116 ] } },
{ "type": "Feature", "properties": { "osm_id": "2306796111", "code": 5621, "fclass": "bus_stop", "name": "MalĂˇ" }, "geometry": { "type": "Point", "coordinates": [ 16.6217623, 49.1492416 ] } },
{ "type": "Feature", "properties": { "osm_id": "2812232970", "code": 5621, "fclass": "bus_stop", "name": "Tererova" }, "geometry": { "type": "Point", "coordinates": [ 16.589189, 49.2156491 ] } },
{ "type": "Feature", "properties": { "osm_id": "1845919744", "code": 5621, "fclass": "bus_stop", "name": "PĹ™Ă­vrat" }, "geometry": { "type": "Point", "coordinates": [ 16.5741126, 49.2186324 ] } },
{ "type": "Feature", "properties": { "osm_id": "2812235814", "code": 5621, "fclass": "bus_stop", "name": "Rybkova" }, "geometry": { "type": "Point", "coordinates": [ 16.5936387, 49.2058947 ] } },
{ "type": "Feature", "properties": { "osm_id": "1845919748", "code": 5621, "fclass": "bus_stop", "name": "PĹ™Ă­vrat" }, "geometry": { "type": "Point", "coordinates": [ 16.5730957, 49.2188939 ] } },
{ "type": "Feature", "properties": { "osm_id": "2812235815", "code": 5621, "fclass": "bus_stop", "name": "Rybkova" }, "geometry": { "type": "Point", "coordinates": [ 16.5930333, 49.2062781 ] } },
{ "type": "Feature", "properties": { "osm_id": "2812241122", "code": 5621, "fclass": "bus_stop", "name": "TĂˇbor" }, "geometry": { "type": "Point", "coordinates": [ 16.5872095, 49.2102881 ] } },
{ "type": "Feature", "properties": { "osm_id": "4005407106", "code": 5621, "fclass": "bus_stop", "name": "HĂˇjeckĂˇ" }, "geometry": { "type": "Point", "coordinates": [ 16.6412352, 49.1745065 ] } },
{ "type": "Feature", "properties": { "osm_id": "2812241123", "code": 5621, "fclass": "bus_stop", "name": "TĂˇbor" }, "geometry": { "type": "Point", "coordinates": [ 16.5857719, 49.2105293 ] } },
{ "type": "Feature", "properties": { "osm_id": "2812241124", "code": 5621, "fclass": "bus_stop", "name": "KrĂˇlova" }, "geometry": { "type": "Point", "coordinates": [ 16.5838998, 49.2111227 ] } },
{ "type": "Feature", "properties": { "osm_id": "2812241125", "code": 5621, "fclass": "bus_stop", "name": "KrĂˇlova" }, "geometry": { "type": "Point", "coordinates": [ 16.5836296, 49.2111298 ] } },
{ "type": "Feature", "properties": { "osm_id": "2812258252", "code": 5621, "fclass": "bus_stop", "name": "MalinovskĂ©ho nĂˇmÄ›stĂ­" }, "geometry": { "type": "Point", "coordinates": [ 16.6132855, 49.1956095 ] } },
{ "type": "Feature", "properties": { "osm_id": "2812261417", "code": 5621, "fclass": "bus_stop", "name": "MoravskĂ© nĂˇmÄ›stĂ­" }, "geometry": { "type": "Point", "coordinates": [ 16.6078911, 49.199208 ] } },
{ "type": "Feature", "properties": { "osm_id": "2812261418", "code": 5621, "fclass": "bus_stop", "name": "MoravskĂ© nĂˇmÄ›stĂ­" }, "geometry": { "type": "Point", "coordinates": [ 16.6080233, 49.1999771 ] } },
{ "type": "Feature", "properties": { "osm_id": "2812264538", "code": 5621, "fclass": "bus_stop", "name": "HrnÄŤĂ­Ĺ™skĂˇ" }, "geometry": { "type": "Point", "coordinates": [ 16.6028852, 49.2102795 ] } },
{ "type": "Feature", "properties": { "osm_id": "289833072", "code": 5603, "fclass": "tram_stop", "name": "StarĂˇ Osada" }, "geometry": { "type": "Point", "coordinates": [ 16.6415617, 49.2024087 ] } },
{ "type": "Feature", "properties": { "osm_id": "2812264539", "code": 5621, "fclass": "bus_stop", "name": "HrnÄŤĂ­Ĺ™skĂˇ" }, "geometry": { "type": "Point", "coordinates": [ 16.602572, 49.2106225 ] } },
{ "type": "Feature", "properties": { "osm_id": "4011552152", "code": 5621, "fclass": "bus_stop", "name": "HornĂ­ HerĹˇpice" }, "geometry": { "type": "Point", "coordinates": [ 16.616547, 49.1663818 ] } },
{ "type": "Feature", "properties": { "osm_id": "2812267527", "code": 5621, "fclass": "bus_stop", "name": "PionĂ˝rskĂˇ" }, "geometry": { "type": "Point", "coordinates": [ 16.6044994, 49.2074988 ] } },
{ "type": "Feature", "properties": { "osm_id": "4011552153", "code": 5621, "fclass": "bus_stop", "name": "HornĂ­ HerĹˇpice" }, "geometry": { "type": "Point", "coordinates": [ 16.6165556, 49.1670205 ] } },
{ "type": "Feature", "properties": { "osm_id": "2812280569", "code": 5621, "fclass": "bus_stop", "name": "Ĺ umavskĂˇ" }, "geometry": { "type": "Point", "coordinates": [ 16.6007203, 49.2139679 ] } },
{ "type": "Feature", "properties": { "osm_id": "4011613651", "code": 5621, "fclass": "bus_stop", "name": "TextilnĂ­ kombinĂˇt" }, "geometry": { "type": "Point", "coordinates": [ 16.6382929, 49.1811046 ] } },
{ "type": "Feature", "properties": { "osm_id": "4019567748", "code": 5621, "fclass": "bus_stop", "name": "HavrĂˇnkova" }, "geometry": { "type": "Point", "coordinates": [ 16.6215093, 49.1574114 ] } },
{ "type": "Feature", "properties": { "osm_id": "4019567749", "code": 5621, "fclass": "bus_stop", "name": "HavrĂˇnkova" }, "geometry": { "type": "Point", "coordinates": [ 16.6214474, 49.1579539 ] } },
{ "type": "Feature", "properties": { "osm_id": "2815619729", "code": 5621, "fclass": "bus_stop", "name": "SchodovĂˇ" }, "geometry": { "type": "Point", "coordinates": [ 16.612149, 49.2067502 ] } },
{ "type": "Feature", "properties": { "osm_id": "4019577237", "code": 5621, "fclass": "bus_stop", "name": "DolnĂ­ HerĹˇpice" }, "geometry": { "type": "Point", "coordinates": [ 16.6215096, 49.1522493 ] } },
{ "type": "Feature", "properties": { "osm_id": "2815619730", "code": 5621, "fclass": "bus_stop", "name": "SchodovĂˇ" }, "geometry": { "type": "Point", "coordinates": [ 16.6123019, 49.2064523 ] } },
{ "type": "Feature", "properties": { "osm_id": "4019577238", "code": 5621, "fclass": "bus_stop", "name": "DolnĂ­ HerĹˇpice" }, "geometry": { "type": "Point", "coordinates": [ 16.621633, 49.1521045 ] } },
{ "type": "Feature", "properties": { "osm_id": "2816913134", "code": 5621, "fclass": "bus_stop", "name": "ZimnĂ­ stadion" }, "geometry": { "type": "Point", "coordinates": [ 16.6095591, 49.2088387 ] } },
{ "type": "Feature", "properties": { "osm_id": "2816913135", "code": 5621, "fclass": "bus_stop", "name": "ZimnĂ­ stadion" }, "geometry": { "type": "Point", "coordinates": [ 16.6098864, 49.2087791 ] } },
{ "type": "Feature", "properties": { "osm_id": "2816913136", "code": 5621, "fclass": "bus_stop", "name": "ZimnĂ­ stadion" }, "geometry": { "type": "Point", "coordinates": [ 16.6097898, 49.2100495 ] } },
{ "type": "Feature", "properties": { "osm_id": "4029717795", "code": 5621, "fclass": "bus_stop", "name": "VlĂˇrskĂˇ" }, "geometry": { "type": "Point", "coordinates": [ 16.6720765, 49.1806966 ] } },
{ "type": "Feature", "properties": { "osm_id": "4029717805", "code": 5621, "fclass": "bus_stop", "name": "VlĂˇrskĂˇ" }, "geometry": { "type": "Point", "coordinates": [ 16.6715255, 49.1807932 ] } },
{ "type": "Feature", "properties": { "osm_id": "429622175", "code": 5621, "fclass": "bus_stop", "name": "Ĺ kroupova" }, "geometry": { "type": "Point", "coordinates": [ 16.6480859, 49.1919409 ] } },
{ "type": "Feature", "properties": { "osm_id": "1355006231", "code": 5621, "fclass": "bus_stop", "name": "BartĂˇkova" }, "geometry": { "type": "Point", "coordinates": [ 16.6787302, 49.203677 ] } },
{ "type": "Feature", "properties": { "osm_id": "1355006238", "code": 5621, "fclass": "bus_stop", "name": "BartĂˇkova" }, "geometry": { "type": "Point", "coordinates": [ 16.6791408, 49.2042426 ] } },
{ "type": "Feature", "properties": { "osm_id": "1870168641", "code": 5621, "fclass": "bus_stop", "name": "Vranov, hĹ™bitov" }, "geometry": { "type": "Point", "coordinates": [ 16.6225605, 49.3058328 ] } },
{ "type": "Feature", "properties": { "osm_id": "26363989", "code": 5602, "fclass": "railway_halt", "name": "StĹ™elice dolnĂ­" }, "geometry": { "type": "Point", "coordinates": [ 16.5062472, 49.1565193 ] } },
{ "type": "Feature", "properties": { "osm_id": "430488213", "code": 5621, "fclass": "bus_stop", "name": "Bosonohy" }, "geometry": { "type": "Point", "coordinates": [ 16.5256822, 49.1765151 ] } },
{ "type": "Feature", "properties": { "osm_id": "26364004", "code": 5602, "fclass": "railway_halt", "name": "Omice" }, "geometry": { "type": "Point", "coordinates": [ 16.4467223, 49.1610825 ] } },
{ "type": "Feature", "properties": { "osm_id": "431038341", "code": 5621, "fclass": "bus_stop", "name": "Ĺ Ăˇrka" }, "geometry": { "type": "Point", "coordinates": [ 16.5457973, 49.191452 ] } },
{ "type": "Feature", "properties": { "osm_id": "4042354334", "code": 5603, "fclass": "tram_stop", "name": "MosteckĂˇ" }, "geometry": { "type": "Point", "coordinates": [ 16.6271414, 49.2071065 ] } },
{ "type": "Feature", "properties": { "osm_id": "432420532", "code": 5621, "fclass": "bus_stop", "name": "VĂ˝letnĂ­" }, "geometry": { "type": "Point", "coordinates": [ 16.5391229, 49.1916868 ] } },
{ "type": "Feature", "properties": { "osm_id": "1360432282", "code": 5621, "fclass": "bus_stop", "name": "Krematorium" }, "geometry": { "type": "Point", "coordinates": [ 16.5898605, 49.1729701 ] } },
{ "type": "Feature", "properties": { "osm_id": "1360432290", "code": 5621, "fclass": "bus_stop", "name": "ĂšstĹ™ednĂ­ hĹ™bitov" }, "geometry": { "type": "Point", "coordinates": [ 16.5983036, 49.1725421 ] } },
{ "type": "Feature", "properties": { "osm_id": "1360432291", "code": 5621, "fclass": "bus_stop", "name": "HolandskĂˇ" }, "geometry": { "type": "Point", "coordinates": [ 16.6058459, 49.1816318 ] } },
{ "type": "Feature", "properties": { "osm_id": "1360432297", "code": 5621, "fclass": "bus_stop", "name": "HolandskĂˇ" }, "geometry": { "type": "Point", "coordinates": [ 16.6043761, 49.1799557 ] } },
{ "type": "Feature", "properties": { "osm_id": "1360432304", "code": 5621, "fclass": "bus_stop", "name": "ĂšstĹ™ednĂ­ hĹ™bitov" }, "geometry": { "type": "Point", "coordinates": [ 16.5979066, 49.1727175 ] } },
{ "type": "Feature", "properties": { "osm_id": "4058731004", "code": 5621, "fclass": "bus_stop", "name": "JarnĂ­ ÄŚD" }, "geometry": { "type": "Point", "coordinates": [ 16.6527958, 49.2209133 ] } },
{ "type": "Feature", "properties": { "osm_id": "4058731005", "code": 5621, "fclass": "bus_stop", "name": "JarnĂ­ ÄŚD" }, "geometry": { "type": "Point", "coordinates": [ 16.6528678, 49.2202404 ] } },
{ "type": "Feature", "properties": { "osm_id": "4058731006", "code": 5621, "fclass": "bus_stop", "name": "Ĺ˝elezniÄŤnĂ­ stavitelstvĂ­" }, "geometry": { "type": "Point", "coordinates": [ 16.6543335, 49.217119 ] } },
{ "type": "Feature", "properties": { "osm_id": "4058731007", "code": 5621, "fclass": "bus_stop", "name": "Ĺ˝elezniÄŤnĂ­ stavitelstvĂ­" }, "geometry": { "type": "Point", "coordinates": [ 16.6540079, 49.2166335 ] } },
{ "type": "Feature", "properties": { "osm_id": "2864204519", "code": 5621, "fclass": "bus_stop", "name": "ProvaznĂ­kova" }, "geometry": { "type": "Point", "coordinates": [ 16.6237963, 49.2145451 ] } },
{ "type": "Feature", "properties": { "osm_id": "4058731008", "code": 5621, "fclass": "bus_stop", "name": "Depo ÄŚD" }, "geometry": { "type": "Point", "coordinates": [ 16.6535631, 49.2153645 ] } },
{ "type": "Feature", "properties": { "osm_id": "2864234903", "code": 5621, "fclass": "bus_stop", "name": "Halasovo nĂˇmÄ›stĂ­" }, "geometry": { "type": "Point", "coordinates": [ 16.6223805, 49.2231051 ] } },
{ "type": "Feature", "properties": { "osm_id": "4058731009", "code": 5621, "fclass": "bus_stop", "name": "Depo ÄŚD" }, "geometry": { "type": "Point", "coordinates": [ 16.6520946, 49.2143275 ] } },
{ "type": "Feature", "properties": { "osm_id": "436583708", "code": 5621, "fclass": "bus_stop", "name": "Bystrc, ÄŚernĂ©ho" }, "geometry": { "type": "Point", "coordinates": [ 16.5228467, 49.2138601 ] } },
{ "type": "Feature", "properties": { "osm_id": "294978803", "code": 5621, "fclass": "bus_stop", "name": "LesnĂ­ Ĺˇkolka" }, "geometry": { "type": "Point", "coordinates": [ 16.625963, 49.2632893 ] } },
{ "type": "Feature", "properties": { "osm_id": "294979088", "code": 5621, "fclass": "bus_stop", "name": "ĂštÄ›chov,rozcestĂ­" }, "geometry": { "type": "Point", "coordinates": [ 16.6318308, 49.2854774 ] } },
{ "type": "Feature", "properties": { "osm_id": "30432608", "code": 5602, "fclass": "railway_halt", "name": "Popovice u Rajhradu" }, "geometry": { "type": "Point", "coordinates": [ 16.6056692, 49.1034098 ] } },
{ "type": "Feature", "properties": { "osm_id": "1372673443", "code": 5661, "fclass": "ferry_terminal", "name": "Bystrc" }, "geometry": { "type": "Point", "coordinates": [ 16.516733, 49.2301065 ] } },
{ "type": "Feature", "properties": { "osm_id": "1372673476", "code": 5661, "fclass": "ferry_terminal", "name": "KozĂ­ horka" }, "geometry": { "type": "Point", "coordinates": [ 16.5089051, 49.2342913 ] } },
{ "type": "Feature", "properties": { "osm_id": "1372673511", "code": 5661, "fclass": "ferry_terminal", "name": "SokolskĂ© koupaliĹˇtÄ›" }, "geometry": { "type": "Point", "coordinates": [ 16.512353, 49.2405553 ] } },
{ "type": "Feature", "properties": { "osm_id": "1372673545", "code": 5661, "fclass": "ferry_terminal", "name": "U kotvy" }, "geometry": { "type": "Point", "coordinates": [ 16.5015571, 49.2415512 ] } },
{ "type": "Feature", "properties": { "osm_id": "1372673567", "code": 5661, "fclass": "ferry_terminal", "name": "Osada" }, "geometry": { "type": "Point", "coordinates": [ 16.5023544, 49.2460637 ] } },
{ "type": "Feature", "properties": { "osm_id": "1372673592", "code": 5661, "fclass": "ferry_terminal", "name": "Rokle" }, "geometry": { "type": "Point", "coordinates": [ 16.4938209, 49.2484147 ] } },
{ "type": "Feature", "properties": { "osm_id": "298106778", "code": 5621, "fclass": "bus_stop", "name": "Klarisky" }, "geometry": { "type": "Point", "coordinates": [ 16.6225059, 49.2570416 ] } },
{ "type": "Feature", "properties": { "osm_id": "298116744", "code": 5621, "fclass": "bus_stop", "name": "ĂštÄ›chov" }, "geometry": { "type": "Point", "coordinates": [ 16.6307528, 49.2884893 ] } },
{ "type": "Feature", "properties": { "osm_id": "298123129", "code": 5621, "fclass": "bus_stop", "name": "Vranov, smyÄŤka" }, "geometry": { "type": "Point", "coordinates": [ 16.6119561, 49.3112296 ] } },
{ "type": "Feature", "properties": { "osm_id": "1377276328", "code": 5661, "fclass": "ferry_terminal", "name": "VeverskĂˇ BĂ­tĂ˝Ĺˇka" }, "geometry": { "type": "Point", "coordinates": [ 16.4568346, 49.2757205 ] } },
{ "type": "Feature", "properties": { "osm_id": "299660735", "code": 5621, "fclass": "bus_stop", "name": "MokrĂˇ-HorĂˇkov, lom" }, "geometry": { "type": "Point", "coordinates": [ 16.7566392, 49.226059 ] } },
{ "type": "Feature", "properties": { "osm_id": "1377276329", "code": 5661, "fclass": "ferry_terminal", "name": null }, "geometry": { "type": "Point", "coordinates": [ 16.455397, 49.2615231 ] } },
{ "type": "Feature", "properties": { "osm_id": "4068820865", "code": 5621, "fclass": "bus_stop", "name": "Lelekovice, nĂˇves" }, "geometry": { "type": "Point", "coordinates": [ 16.5792931, 49.291185 ] } },
{ "type": "Feature", "properties": { "osm_id": "4068820866", "code": 5621, "fclass": "bus_stop", "name": "Lelekovice, nĂˇves" }, "geometry": { "type": "Point", "coordinates": [ 16.5785844, 49.2913328 ] } },
{ "type": "Feature", "properties": { "osm_id": "299910480", "code": 5621, "fclass": "bus_stop", "name": "LĂ­ĹˇeĹ, hĹ™bitov" }, "geometry": { "type": "Point", "coordinates": [ 16.7026579, 49.2175249 ] } },
{ "type": "Feature", "properties": { "osm_id": "443669178", "code": 5621, "fclass": "bus_stop", "name": "Chrlice, smyÄŤka" }, "geometry": { "type": "Point", "coordinates": [ 16.6545834, 49.12638 ] } },
{ "type": "Feature", "properties": { "osm_id": "817227656", "code": 5621, "fclass": "bus_stop", "name": "KuĹ™im, TOS" }, "geometry": { "type": "Point", "coordinates": [ 16.5400896, 49.3132452 ] } },
{ "type": "Feature", "properties": { "osm_id": "443669181", "code": 5621, "fclass": "bus_stop", "name": "Chrlice, nĂˇdraĹľĂ­" }, "geometry": { "type": "Point", "coordinates": [ 16.656686, 49.1322069 ] } },
{ "type": "Feature", "properties": { "osm_id": "443669182", "code": 5621, "fclass": "bus_stop", "name": "Chrlice, nĂˇdraĹľĂ­" }, "geometry": { "type": "Point", "coordinates": [ 16.6565819, 49.1315491 ] } },
{ "type": "Feature", "properties": { "osm_id": "443669183", "code": 5621, "fclass": "bus_stop", "name": "ChrlickĂ© nĂˇmÄ›stĂ­" }, "geometry": { "type": "Point", "coordinates": [ 16.6540842, 49.1352219 ] } },
{ "type": "Feature", "properties": { "osm_id": "443669185", "code": 5621, "fclass": "bus_stop", "name": "ChrlickĂ© nĂˇmÄ›stĂ­" }, "geometry": { "type": "Point", "coordinates": [ 16.6540069, 49.1350085 ] } },
{ "type": "Feature", "properties": { "osm_id": "443669186", "code": 5621, "fclass": "bus_stop", "name": "ChrlickĂ© nĂˇmÄ›stĂ­" }, "geometry": { "type": "Point", "coordinates": [ 16.6530628, 49.1358902 ] } },
{ "type": "Feature", "properties": { "osm_id": "443669188", "code": 5621, "fclass": "bus_stop", "name": "ChrlickĂ© nĂˇmÄ›stĂ­" }, "geometry": { "type": "Point", "coordinates": [ 16.6531744, 49.1356487 ] } },
{ "type": "Feature", "properties": { "osm_id": "443669189", "code": 5621, "fclass": "bus_stop", "name": "Ĺ romova" }, "geometry": { "type": "Point", "coordinates": [ 16.6512604, 49.1339191 ] } },
{ "type": "Feature", "properties": { "osm_id": "443669190", "code": 5621, "fclass": "bus_stop", "name": "Ĺ romova" }, "geometry": { "type": "Point", "coordinates": [ 16.650814, 49.1339022 ] } },
{ "type": "Feature", "properties": { "osm_id": "443713335", "code": 5621, "fclass": "bus_stop", "name": "StĹ™elice, Ăşstav sociĂˇlnĂ­ pĂ©ÄŤe" }, "geometry": { "type": "Point", "coordinates": [ 16.4700809, 49.1516892 ] } },
{ "type": "Feature", "properties": { "osm_id": "443713336", "code": 5621, "fclass": "bus_stop", "name": "StĹ™elice, Ăşstav sociĂˇlnĂ­ pĂ©ÄŤe" }, "geometry": { "type": "Point", "coordinates": [ 16.4702341, 49.1516805 ] } },
{ "type": "Feature", "properties": { "osm_id": "1386807260", "code": 5621, "fclass": "bus_stop", "name": "Marie PujmanovĂ©" }, "geometry": { "type": "Point", "coordinates": [ 16.5741872, 49.1980155 ] } },
{ "type": "Feature", "properties": { "osm_id": "1386807269", "code": 5621, "fclass": "bus_stop", "name": "Marie PujmanovĂ©" }, "geometry": { "type": "Point", "coordinates": [ 16.573209, 49.1982317 ] } },
{ "type": "Feature", "properties": { "osm_id": "301587447", "code": 5621, "fclass": "bus_stop", "name": "ModĹ™ice, Masarykova" }, "geometry": { "type": "Point", "coordinates": [ 16.6145708, 49.1310663 ] } },
{ "type": "Feature", "properties": { "osm_id": "4081047729", "code": 5621, "fclass": "bus_stop", "name": "RĂ­Ĺˇova" }, "geometry": { "type": "Point", "coordinates": [ 16.481154, 49.2066823 ] } },
{ "type": "Feature", "properties": { "osm_id": "1399376337", "code": 5621, "fclass": "bus_stop", "name": "Neumannova" }, "geometry": { "type": "Point", "coordinates": [ 16.5782209, 49.1964256 ] } },
{ "type": "Feature", "properties": { "osm_id": "1399376342", "code": 5621, "fclass": "bus_stop", "name": "Pavlikova" }, "geometry": { "type": "Point", "coordinates": [ 16.5819407, 49.1950273 ] } },
{ "type": "Feature", "properties": { "osm_id": "1399376347", "code": 5621, "fclass": "bus_stop", "name": "PavlĂ­kova" }, "geometry": { "type": "Point", "coordinates": [ 16.5827976, 49.1947426 ] } },
{ "type": "Feature", "properties": { "osm_id": "4092863592", "code": 5621, "fclass": "bus_stop", "name": "MalinovĂˇ" }, "geometry": { "type": "Point", "coordinates": [ 16.6235436, 49.2591613 ] } },
{ "type": "Feature", "properties": { "osm_id": "4092863593", "code": 5621, "fclass": "bus_stop", "name": "MalinovĂˇ" }, "geometry": { "type": "Point", "coordinates": [ 16.6237944, 49.2592331 ] } },
{ "type": "Feature", "properties": { "osm_id": "1931330680", "code": 5621, "fclass": "bus_stop", "name": "RebeĹˇovice" }, "geometry": { "type": "Point", "coordinates": [ 16.6378854, 49.1049231 ] } },
{ "type": "Feature", "properties": { "osm_id": "4092863596", "code": 5621, "fclass": "bus_stop", "name": "U JezĂ­rka" }, "geometry": { "type": "Point", "coordinates": [ 16.6289168, 49.2703607 ] } },
{ "type": "Feature", "properties": { "osm_id": "1931330687", "code": 5621, "fclass": "bus_stop", "name": "RebeĹˇovice" }, "geometry": { "type": "Point", "coordinates": [ 16.6380054, 49.1048581 ] } },
{ "type": "Feature", "properties": { "osm_id": "4092863599", "code": 5621, "fclass": "bus_stop", "name": "U JezĂ­rka" }, "geometry": { "type": "Point", "coordinates": [ 16.6290992, 49.270422 ] } },
{ "type": "Feature", "properties": { "osm_id": "2341550746", "code": 5621, "fclass": "bus_stop", "name": "KlepaÄŤov, toÄŤna" }, "geometry": { "type": "Point", "coordinates": [ 16.6655996, 49.3415942 ] } },
{ "type": "Feature", "properties": { "osm_id": "836534148", "code": 5621, "fclass": "bus_stop", "name": "BidlĂˇky" }, "geometry": { "type": "Point", "coordinates": [ 16.6061893, 49.1784368 ] } },
{ "type": "Feature", "properties": { "osm_id": "447564115", "code": 5621, "fclass": "bus_stop", "name": "Nebovidy, dolnĂ­ konec" }, "geometry": { "type": "Point", "coordinates": [ 16.5488214, 49.1421532 ] } },
{ "type": "Feature", "properties": { "osm_id": "447564116", "code": 5621, "fclass": "bus_stop", "name": "Nebovidy, dolnĂ­ konec" }, "geometry": { "type": "Point", "coordinates": [ 16.5488501, 49.1422005 ] } },
{ "type": "Feature", "properties": { "osm_id": "447564119", "code": 5621, "fclass": "bus_stop", "name": "Nebovidy, u kostela" }, "geometry": { "type": "Point", "coordinates": [ 16.5536658, 49.14167 ] } },
{ "type": "Feature", "properties": { "osm_id": "447564120", "code": 5621, "fclass": "bus_stop", "name": "Nebovidy, u kostela" }, "geometry": { "type": "Point", "coordinates": [ 16.5539375, 49.1417596 ] } },
{ "type": "Feature", "properties": { "osm_id": "844207460", "code": 5621, "fclass": "bus_stop", "name": null }, "geometry": { "type": "Point", "coordinates": [ 16.5422741, 49.1854114 ] } },
{ "type": "Feature", "properties": { "osm_id": "447564128", "code": 5621, "fclass": "bus_stop", "name": "Moravany, HlavnĂ­" }, "geometry": { "type": "Point", "coordinates": [ 16.5785622, 49.1470911 ] } },
{ "type": "Feature", "properties": { "osm_id": "844207462", "code": 5621, "fclass": "bus_stop", "name": null }, "geometry": { "type": "Point", "coordinates": [ 16.543399, 49.1852472 ] } },
{ "type": "Feature", "properties": { "osm_id": "447564129", "code": 5621, "fclass": "bus_stop", "name": "Moravany, HlavnĂ­" }, "geometry": { "type": "Point", "coordinates": [ 16.5788435, 49.1472941 ] } },
{ "type": "Feature", "properties": { "osm_id": "447564140", "code": 5621, "fclass": "bus_stop", "name": null }, "geometry": { "type": "Point", "coordinates": [ 16.603005, 49.1118488 ] } },
{ "type": "Feature", "properties": { "osm_id": "447564141", "code": 5621, "fclass": "bus_stop", "name": null }, "geometry": { "type": "Point", "coordinates": [ 16.6028216, 49.1115227 ] } },
{ "type": "Feature", "properties": { "osm_id": "1408770408", "code": 5621, "fclass": "bus_stop", "name": "MariĂˇnskĂ© ĂşdolĂ­" }, "geometry": { "type": "Point", "coordinates": [ 16.7158656, 49.2033173 ] } },
{ "type": "Feature", "properties": { "osm_id": "447564163", "code": 5621, "fclass": "bus_stop", "name": "Nebovidy, ZĂˇvist" }, "geometry": { "type": "Point", "coordinates": [ 16.5284406, 49.1346591 ] } },
{ "type": "Feature", "properties": { "osm_id": "447564164", "code": 5621, "fclass": "bus_stop", "name": "Nebovidy, ZĂˇvist" }, "geometry": { "type": "Point", "coordinates": [ 16.5283974, 49.1347741 ] } },
{ "type": "Feature", "properties": { "osm_id": "447564169", "code": 5621, "fclass": "bus_stop", "name": "StĹ™elice, rozcestĂ­ Radostice" }, "geometry": { "type": "Point", "coordinates": [ 16.4643201, 49.1504746 ] } },
{ "type": "Feature", "properties": { "osm_id": "447564170", "code": 5621, "fclass": "bus_stop", "name": "StĹ™elice, rozcestĂ­ Radostice" }, "geometry": { "type": "Point", "coordinates": [ 16.4645295, 49.1504826 ] } },
{ "type": "Feature", "properties": { "osm_id": "1409534423", "code": 5621, "fclass": "bus_stop", "name": "KomĂˇrov" }, "geometry": { "type": "Point", "coordinates": [ 16.6224348, 49.1744243 ] } },
{ "type": "Feature", "properties": { "osm_id": "4116183596", "code": 5621, "fclass": "bus_stop", "name": "ZimnĂ­ II" }, "geometry": { "type": "Point", "coordinates": [ 16.6560273, 49.2134036 ] } },
{ "type": "Feature", "properties": { "osm_id": "1412504700", "code": 5621, "fclass": "bus_stop", "name": "Neumannova" }, "geometry": { "type": "Point", "coordinates": [ 16.577719, 49.1967244 ] } },
{ "type": "Feature", "properties": { "osm_id": "1412971660", "code": 5621, "fclass": "bus_stop", "name": "MokrĂˇ-HorĂˇkov, HorĂˇkov" }, "geometry": { "type": "Point", "coordinates": [ 16.7498126, 49.2155903 ] } },
{ "type": "Feature", "properties": { "osm_id": "448688031", "code": 5621, "fclass": "bus_stop", "name": "MeÄŤkov" }, "geometry": { "type": "Point", "coordinates": [ 16.4435191, 49.2611677 ] } },
{ "type": "Feature", "properties": { "osm_id": "448688035", "code": 5621, "fclass": "bus_stop", "name": "MeÄŤkov" }, "geometry": { "type": "Point", "coordinates": [ 16.4435909, 49.2612033 ] } },
{ "type": "Feature", "properties": { "osm_id": "448688050", "code": 5621, "fclass": "bus_stop", "name": "U Matky BoĹľĂ­" }, "geometry": { "type": "Point", "coordinates": [ 16.4531185, 49.2542841 ] } },
{ "type": "Feature", "properties": { "osm_id": "448688055", "code": 5621, "fclass": "bus_stop", "name": "U Matky BoĹľĂ­" }, "geometry": { "type": "Point", "coordinates": [ 16.4533034, 49.254155 ] } },
{ "type": "Feature", "properties": { "osm_id": "448688058", "code": 5621, "fclass": "bus_stop", "name": "NovĂ© Dvory" }, "geometry": { "type": "Point", "coordinates": [ 16.4503615, 49.2515439 ] } },
{ "type": "Feature", "properties": { "osm_id": "448688067", "code": 5621, "fclass": "bus_stop", "name": "NovĂ© Dvory" }, "geometry": { "type": "Point", "coordinates": [ 16.4503482, 49.2514478 ] } },
{ "type": "Feature", "properties": { "osm_id": "448688073", "code": 5621, "fclass": "bus_stop", "name": "Hrad VeveĹ™Ă­" }, "geometry": { "type": "Point", "coordinates": [ 16.4614589, 49.2546048 ] } },
{ "type": "Feature", "properties": { "osm_id": "448688081", "code": 5621, "fclass": "bus_stop", "name": "Hrad VeveĹ™Ă­" }, "geometry": { "type": "Point", "coordinates": [ 16.4616405, 49.254567 ] } },
{ "type": "Feature", "properties": { "osm_id": "448688090", "code": 5621, "fclass": "bus_stop", "name": "LĂˇvka pod hradem" }, "geometry": { "type": "Point", "coordinates": [ 16.4651611, 49.2601717 ] } },
{ "type": "Feature", "properties": { "osm_id": "448688104", "code": 5621, "fclass": "bus_stop", "name": "LĂˇvka pod hradem" }, "geometry": { "type": "Point", "coordinates": [ 16.4653428, 49.2601687 ] } },
{ "type": "Feature", "properties": { "osm_id": "448855997", "code": 5621, "fclass": "bus_stop", "name": "Rakovec" }, "geometry": { "type": "Point", "coordinates": [ 16.508504, 49.2279875 ] } },
{ "type": "Feature", "properties": { "osm_id": "448855998", "code": 5621, "fclass": "bus_stop", "name": "Rakovec" }, "geometry": { "type": "Point", "coordinates": [ 16.5084984, 49.2276159 ] } },
{ "type": "Feature", "properties": { "osm_id": "448856013", "code": 5621, "fclass": "bus_stop", "name": "KozĂ­ horka" }, "geometry": { "type": "Point", "coordinates": [ 16.5044734, 49.2361492 ] } },
{ "type": "Feature", "properties": { "osm_id": "448856014", "code": 5621, "fclass": "bus_stop", "name": "KozĂ­ horka" }, "geometry": { "type": "Point", "coordinates": [ 16.5046382, 49.2368933 ] } },
{ "type": "Feature", "properties": { "osm_id": "448856016", "code": 5621, "fclass": "bus_stop", "name": "Rokle" }, "geometry": { "type": "Point", "coordinates": [ 16.4960537, 49.2457208 ] } },
{ "type": "Feature", "properties": { "osm_id": "448856017", "code": 5621, "fclass": "bus_stop", "name": "Rokle" }, "geometry": { "type": "Point", "coordinates": [ 16.4961281, 49.2457435 ] } },
{ "type": "Feature", "properties": { "osm_id": "448856018", "code": 5621, "fclass": "bus_stop", "name": "Jelenice" }, "geometry": { "type": "Point", "coordinates": [ 16.4850581, 49.250692 ] } },
{ "type": "Feature", "properties": { "osm_id": "448856019", "code": 5621, "fclass": "bus_stop", "name": "Jelenice" }, "geometry": { "type": "Point", "coordinates": [ 16.4851634, 49.2507615 ] } },
{ "type": "Feature", "properties": { "osm_id": "448856020", "code": 5621, "fclass": "bus_stop", "name": "Obora" }, "geometry": { "type": "Point", "coordinates": [ 16.4758448, 49.2556873 ] } },
{ "type": "Feature", "properties": { "osm_id": "448856021", "code": 5621, "fclass": "bus_stop", "name": "Obora" }, "geometry": { "type": "Point", "coordinates": [ 16.4761108, 49.2553884 ] } },
{ "type": "Feature", "properties": { "osm_id": "305527311", "code": 5621, "fclass": "bus_stop", "name": "Telnice" }, "geometry": { "type": "Point", "coordinates": [ 16.717849, 49.1016609 ] } },
{ "type": "Feature", "properties": { "osm_id": "452668261", "code": 5621, "fclass": "bus_stop", "name": "MoravskĂ© BrĂˇnice, u hĹ™bitova" }, "geometry": { "type": "Point", "coordinates": [ 16.4389418, 49.0862434 ] } },
{ "type": "Feature", "properties": { "osm_id": "452668262", "code": 5621, "fclass": "bus_stop", "name": "MoravskĂ© BrĂˇnice, u hĹ™bitova" }, "geometry": { "type": "Point", "coordinates": [ 16.4388688, 49.086246 ] } },
{ "type": "Feature", "properties": { "osm_id": "452668292", "code": 5621, "fclass": "bus_stop", "name": "NovĂ© BrĂˇnice, rozcestĂ­" }, "geometry": { "type": "Point", "coordinates": [ 16.4392274, 49.0782171 ] } },
{ "type": "Feature", "properties": { "osm_id": "452668293", "code": 5621, "fclass": "bus_stop", "name": "NovĂ© BrĂˇnice, rozcestĂ­" }, "geometry": { "type": "Point", "coordinates": [ 16.4391737, 49.0782481 ] } },
{ "type": "Feature", "properties": { "osm_id": "4154145541", "code": 5621, "fclass": "bus_stop", "name": "MariĂˇnskĂ© ĂşdolĂ­" }, "geometry": { "type": "Point", "coordinates": [ 16.7164734, 49.2032294 ] } },
{ "type": "Feature", "properties": { "osm_id": "1979032287", "code": 5621, "fclass": "bus_stop", "name": "Ostopovice, rozcestĂ­" }, "geometry": { "type": "Point", "coordinates": [ 16.5431156, 49.1630194 ] } },
{ "type": "Feature", "properties": { "osm_id": "305757815", "code": 5621, "fclass": "bus_stop", "name": null }, "geometry": { "type": "Point", "coordinates": [ 16.6671497, 49.1464885 ] } },
{ "type": "Feature", "properties": { "osm_id": "1979058961", "code": 5621, "fclass": "bus_stop", "name": "Ostopovice, nĂˇmÄ›stĂ­" }, "geometry": { "type": "Point", "coordinates": [ 16.5456631, 49.1611011 ] } },
{ "type": "Feature", "properties": { "osm_id": "306078216", "code": 5621, "fclass": "bus_stop", "name": "Na KovĂˇrnÄ›" }, "geometry": { "type": "Point", "coordinates": [ 16.6208758, 49.2545359 ] } },
{ "type": "Feature", "properties": { "osm_id": "306078217", "code": 5621, "fclass": "bus_stop", "name": "Na KovĂˇrnÄ›" }, "geometry": { "type": "Point", "coordinates": [ 16.6202522, 49.2532242 ] } },
{ "type": "Feature", "properties": { "osm_id": "863666895", "code": 5621, "fclass": "bus_stop", "name": "Ĺ touraÄŤova" }, "geometry": { "type": "Point", "coordinates": [ 16.521446, 49.2156165 ] } },
{ "type": "Feature", "properties": { "osm_id": "306078219", "code": 5621, "fclass": "bus_stop", "name": "Na kopcĂ­ch" }, "geometry": { "type": "Point", "coordinates": [ 16.6034892, 49.235381 ] } },
{ "type": "Feature", "properties": { "osm_id": "306375045", "code": 5621, "fclass": "bus_stop", "name": "SLATINA, Slatinka" }, "geometry": { "type": "Point", "coordinates": [ 16.6888468, 49.1649136 ] } },
{ "type": "Feature", "properties": { "osm_id": "4169960842", "code": 5621, "fclass": "bus_stop", "name": "Raisova" }, "geometry": { "type": "Point", "coordinates": [ 16.5625305, 49.1819449 ] } },
{ "type": "Feature", "properties": { "osm_id": "4169960843", "code": 5621, "fclass": "bus_stop", "name": "Raisova" }, "geometry": { "type": "Point", "coordinates": [ 16.5624721, 49.1820603 ] } },
{ "type": "Feature", "properties": { "osm_id": "4169960844", "code": 5621, "fclass": "bus_stop", "name": "VeslaĹ™skĂˇ" }, "geometry": { "type": "Point", "coordinates": [ 16.5652277, 49.202691 ] } },
{ "type": "Feature", "properties": { "osm_id": "4169960845", "code": 5621, "fclass": "bus_stop", "name": "VeslaĹ™skĂˇ" }, "geometry": { "type": "Point", "coordinates": [ 16.5647836, 49.2027992 ] } },
{ "type": "Feature", "properties": { "osm_id": "3675479475", "code": 5621, "fclass": "bus_stop", "name": "ÄŚebĂ­n, sĂ­dliĹˇtÄ›" }, "geometry": { "type": "Point", "coordinates": [ 16.4737341, 49.3166009 ] } },
{ "type": "Feature", "properties": { "osm_id": "3675487165", "code": 5621, "fclass": "bus_stop", "name": "ÄŚebĂ­n, sĂ­dliĹˇtÄ›" }, "geometry": { "type": "Point", "coordinates": [ 16.4734392, 49.3168224 ] } },
{ "type": "Feature", "properties": { "osm_id": "2947498536", "code": 5621, "fclass": "bus_stop", "name": "RosickĂ©ho nĂˇmÄ›stĂ­" }, "geometry": { "type": "Point", "coordinates": [ 16.569232, 49.2148654 ] } },
{ "type": "Feature", "properties": { "osm_id": "2947498538", "code": 5621, "fclass": "bus_stop", "name": "RosickĂ©ho nĂˇmÄ›stĂ­" }, "geometry": { "type": "Point", "coordinates": [ 16.5683132, 49.2149093 ] } },
{ "type": "Feature", "properties": { "osm_id": "307681509", "code": 5621, "fclass": "bus_stop", "name": "PĹ™Ă­zĹ™enice, ModĹ™ickĂˇ" }, "geometry": { "type": "Point", "coordinates": [ 16.6164005, 49.1380584 ] } },
{ "type": "Feature", "properties": { "osm_id": "307922082", "code": 5621, "fclass": "bus_stop", "name": "ModĹ™ice, nĂˇmÄ›stĂ­" }, "geometry": { "type": "Point", "coordinates": [ 16.6164665, 49.1277455 ] } },
{ "type": "Feature", "properties": { "osm_id": "307922162", "code": 5621, "fclass": "bus_stop", "name": "ModĹ™ice, smyÄŤka" }, "geometry": { "type": "Point", "coordinates": [ 16.6048644, 49.1264262 ] } },
{ "type": "Feature", "properties": { "osm_id": "877760250", "code": 5622, "fclass": "bus_station", "name": "Ĺ lapanice, Riegerova" }, "geometry": { "type": "Point", "coordinates": [ 16.7258133, 49.1683785 ] } },
{ "type": "Feature", "properties": { "osm_id": "877768912", "code": 5621, "fclass": "bus_stop", "name": "Ĺ lapanice, ÄŚechova" }, "geometry": { "type": "Point", "coordinates": [ 16.7215608, 49.1660789 ] } },
{ "type": "Feature", "properties": { "osm_id": "877768920", "code": 5621, "fclass": "bus_stop", "name": "Ĺ lapanice, sĂ­dliĹˇtÄ›" }, "geometry": { "type": "Point", "coordinates": [ 16.71854, 49.1670327 ] } },
{ "type": "Feature", "properties": { "osm_id": "74206550", "code": 5621, "fclass": "bus_stop", "name": "Adamov, ĹľelezniÄŤnĂ­ zastĂˇvka" }, "geometry": { "type": "Point", "coordinates": [ 16.6499888, 49.3014072 ] } },
{ "type": "Feature", "properties": { "osm_id": "459981922", "code": 5621, "fclass": "bus_stop", "name": "StĹ™elice, VrĹˇovice" }, "geometry": { "type": "Point", "coordinates": [ 16.4803263, 49.1534772 ] } },
{ "type": "Feature", "properties": { "osm_id": "459981974", "code": 5621, "fclass": "bus_stop", "name": "StĹ™elice, nĂˇkupnĂ­ stĹ™edisko" }, "geometry": { "type": "Point", "coordinates": [ 16.4937598, 49.1528154 ] } },
{ "type": "Feature", "properties": { "osm_id": "459981975", "code": 5621, "fclass": "bus_stop", "name": "StĹ™elice, nĂˇkupnĂ­ stĹ™edisko" }, "geometry": { "type": "Point", "coordinates": [ 16.4941041, 49.1526537 ] } },
{ "type": "Feature", "properties": { "osm_id": "74238006", "code": 5621, "fclass": "bus_stop", "name": null }, "geometry": { "type": "Point", "coordinates": [ 16.6550641, 49.2421733 ] } },
{ "type": "Feature", "properties": { "osm_id": "460340858", "code": 5621, "fclass": "bus_stop", "name": "StĹ™elice, obecnĂ­ ĂşĹ™ad" }, "geometry": { "type": "Point", "coordinates": [ 16.5028234, 49.1526381 ] } },
{ "type": "Feature", "properties": { "osm_id": "460340859", "code": 5621, "fclass": "bus_stop", "name": "StĹ™elice, obecnĂ­ ĂşĹ™ad" }, "geometry": { "type": "Point", "coordinates": [ 16.5031417, 49.1526771 ] } },
{ "type": "Feature", "properties": { "osm_id": "74246048", "code": 5621, "fclass": "bus_stop", "name": "MalomÄ›Ĺ™ickĂ˝ most" }, "geometry": { "type": "Point", "coordinates": [ 16.6439535, 49.2152559 ] } },
{ "type": "Feature", "properties": { "osm_id": "74297587", "code": 5621, "fclass": "bus_stop", "name": "VelkĂˇ Klajdovka" }, "geometry": { "type": "Point", "coordinates": [ 16.6810681, 49.2172099 ] } },
{ "type": "Feature", "properties": { "osm_id": "1480478935", "code": 5621, "fclass": "bus_stop", "name": "Reissigova" }, "geometry": { "type": "Point", "coordinates": [ 16.6047515, 49.2157378 ] } },
{ "type": "Feature", "properties": { "osm_id": "2955001319", "code": 5621, "fclass": "bus_stop", "name": "Kobylnice, hĹ™bitov" }, "geometry": { "type": "Point", "coordinates": [ 16.733024, 49.1325602 ] } },
{ "type": "Feature", "properties": { "osm_id": "2041933183", "code": 5621, "fclass": "bus_stop", "name": "MalinovskĂ©ho nĂˇmÄ›stĂ­" }, "geometry": { "type": "Point", "coordinates": [ 16.6128635, 49.1962568 ] } },
{ "type": "Feature", "properties": { "osm_id": "2398297566", "code": 5621, "fclass": "bus_stop", "name": "MariĂˇnskĂ© nĂˇmÄ›stĂ­" }, "geometry": { "type": "Point", "coordinates": [ 16.6227389, 49.1764135 ] } },
{ "type": "Feature", "properties": { "osm_id": "2398297572", "code": 5621, "fclass": "bus_stop", "name": "MariĂˇnskĂ© nĂˇmÄ›stĂ­" }, "geometry": { "type": "Point", "coordinates": [ 16.6229879, 49.1762435 ] } },
{ "type": "Feature", "properties": { "osm_id": "1485730903", "code": 5621, "fclass": "bus_stop", "name": "Zetor, smyÄŤka" }, "geometry": { "type": "Point", "coordinates": [ 16.6702623, 49.1996194 ] } },
{ "type": "Feature", "properties": { "osm_id": "1488890358", "code": 5621, "fclass": "bus_stop", "name": "Soukopova" }, "geometry": { "type": "Point", "coordinates": [ 16.5790503, 49.1989878 ] } },
{ "type": "Feature", "properties": { "osm_id": "1488890361", "code": 5621, "fclass": "bus_stop", "name": "Soukopova" }, "geometry": { "type": "Point", "coordinates": [ 16.578706, 49.1991038 ] } },
{ "type": "Feature", "properties": { "osm_id": "4200314557", "code": 5621, "fclass": "bus_stop", "name": "PodstrĂˇnskĂˇ" }, "geometry": { "type": "Point", "coordinates": [ 16.6669893, 49.1861214 ] } },
{ "type": "Feature", "properties": { "osm_id": "4200314559", "code": 5621, "fclass": "bus_stop", "name": "PodstrĂˇnskĂˇ" }, "geometry": { "type": "Point", "coordinates": [ 16.6665444, 49.1868496 ] } },
{ "type": "Feature", "properties": { "osm_id": "2399865018", "code": 5621, "fclass": "bus_stop", "name": "Syrovice" }, "geometry": { "type": "Point", "coordinates": [ 16.54823, 49.0803229 ] } },
{ "type": "Feature", "properties": { "osm_id": "467154276", "code": 5621, "fclass": "bus_stop", "name": "Kopce" }, "geometry": { "type": "Point", "coordinates": [ 16.509292, 49.2054653 ] } },
{ "type": "Feature", "properties": { "osm_id": "2399865510", "code": 5621, "fclass": "bus_stop", "name": "Syrovice, SobotovickĂˇ" }, "geometry": { "type": "Point", "coordinates": [ 16.5451315, 49.0777538 ] } },
{ "type": "Feature", "properties": { "osm_id": "2399866608", "code": 5621, "fclass": "bus_stop", "name": "Syrovice" }, "geometry": { "type": "Point", "coordinates": [ 16.5489575, 49.0803299 ] } },
{ "type": "Feature", "properties": { "osm_id": "2401288669", "code": 5621, "fclass": "bus_stop", "name": "ÄŚernovickĂˇ" }, "geometry": { "type": "Point", "coordinates": [ 16.6283368, 49.1768138 ] } },
{ "type": "Feature", "properties": { "osm_id": "467743254", "code": 5622, "fclass": "bus_station", "name": null }, "geometry": { "type": "Point", "coordinates": [ 16.4471091, 49.200411 ] } },
{ "type": "Feature", "properties": { "osm_id": "2401288671", "code": 5621, "fclass": "bus_stop", "name": "MĂ­rovĂˇ" }, "geometry": { "type": "Point", "coordinates": [ 16.6324887, 49.1763842 ] } },
{ "type": "Feature", "properties": { "osm_id": "467778005", "code": 5621, "fclass": "bus_stop", "name": "BartolomÄ›jskĂˇ" }, "geometry": { "type": "Point", "coordinates": [ 16.4894093, 49.2035855 ] } },
{ "type": "Feature", "properties": { "osm_id": "2401288673", "code": 5621, "fclass": "bus_stop", "name": "MĂ­rovĂˇ" }, "geometry": { "type": "Point", "coordinates": [ 16.6322151, 49.1766455 ] } },
{ "type": "Feature", "properties": { "osm_id": "2401288676", "code": 5621, "fclass": "bus_stop", "name": "ÄŚernovickĂˇ" }, "geometry": { "type": "Point", "coordinates": [ 16.6264322, 49.1769857 ] } },
{ "type": "Feature", "properties": { "osm_id": "468238722", "code": 5621, "fclass": "bus_stop", "name": "Ĺ touraÄŤova" }, "geometry": { "type": "Point", "coordinates": [ 16.5218413, 49.2148228 ] } },
{ "type": "Feature", "properties": { "osm_id": "2402342858", "code": 5621, "fclass": "bus_stop", "name": null }, "geometry": { "type": "Point", "coordinates": [ 16.6939855, 49.2798711 ] } },
{ "type": "Feature", "properties": { "osm_id": "469437726", "code": 5621, "fclass": "bus_stop", "name": null }, "geometry": { "type": "Point", "coordinates": [ 16.4382272, 49.2064809 ] } },
{ "type": "Feature", "properties": { "osm_id": "309816283", "code": 5621, "fclass": "bus_stop", "name": "ÄŚeskĂˇ, NĂˇdavky" }, "geometry": { "type": "Point", "coordinates": [ 16.5677857, 49.2746548 ] } },
{ "type": "Feature", "properties": { "osm_id": "309926376", "code": 5603, "fclass": "tram_stop", "name": "Ĺ˝ivotskĂ©ho" }, "geometry": { "type": "Point", "coordinates": [ 16.6339261, 49.190855 ] } },
{ "type": "Feature", "properties": { "osm_id": "309927722", "code": 5621, "fclass": "bus_stop", "name": "MutÄ›nickĂˇ" }, "geometry": { "type": "Point", "coordinates": [ 16.6547847, 49.203941 ] } },
{ "type": "Feature", "properties": { "osm_id": "309928069", "code": 5621, "fclass": "bus_stop", "name": "BzeneckĂˇ" }, "geometry": { "type": "Point", "coordinates": [ 16.6615509, 49.2058063 ] } },
{ "type": "Feature", "properties": { "osm_id": "472094064", "code": 5621, "fclass": "bus_stop", "name": "Radostice, sokolovna" }, "geometry": { "type": "Point", "coordinates": [ 16.4790526, 49.1324789 ] } },
{ "type": "Feature", "properties": { "osm_id": "472094069", "code": 5621, "fclass": "bus_stop", "name": "Radostice, sokolovna" }, "geometry": { "type": "Point", "coordinates": [ 16.4792379, 49.1329075 ] } },
{ "type": "Feature", "properties": { "osm_id": "475371233", "code": 5621, "fclass": "bus_stop", "name": "StĹ™elice, dolnĂ­ ĹľelezniÄŤnĂ­ stanice" }, "geometry": { "type": "Point", "coordinates": [ 16.5044775, 49.1559739 ] } },
{ "type": "Feature", "properties": { "osm_id": "475371234", "code": 5621, "fclass": "bus_stop", "name": "StĹ™elice, dolnĂ­ ĹľelezniÄŤnĂ­ stanice" }, "geometry": { "type": "Point", "coordinates": [ 16.5047487, 49.1560316 ] } },
{ "type": "Feature", "properties": { "osm_id": "475561789", "code": 5621, "fclass": "bus_stop", "name": "PrateckĂˇ" }, "geometry": { "type": "Point", "coordinates": [ 16.6813837, 49.146275 ] } },
{ "type": "Feature", "properties": { "osm_id": "110476087", "code": 5621, "fclass": "bus_stop", "name": "PalackĂ©ho nĂˇmÄ›stĂ­" }, "geometry": { "type": "Point", "coordinates": [ 16.5818496, 49.2507953 ] } },
{ "type": "Feature", "properties": { "osm_id": "110480711", "code": 5621, "fclass": "bus_stop", "name": "HorĂˇckĂ© nĂˇmÄ›stĂ­" }, "geometry": { "type": "Point", "coordinates": [ 16.5823942, 49.2475109 ] } },
{ "type": "Feature", "properties": { "osm_id": "476303625", "code": 5621, "fclass": "bus_stop", "name": "OĹ™echov, kravĂ­n" }, "geometry": { "type": "Point", "coordinates": [ 16.4961227, 49.1085133 ] } },
{ "type": "Feature", "properties": { "osm_id": "476303626", "code": 5621, "fclass": "bus_stop", "name": "OĹ™echov, kravĂ­n" }, "geometry": { "type": "Point", "coordinates": [ 16.496672, 49.1086412 ] } },
{ "type": "Feature", "properties": { "osm_id": "476315653", "code": 5621, "fclass": "bus_stop", "name": "Smetanova" }, "geometry": { "type": "Point", "coordinates": [ 16.6022058, 49.2013471 ] } },
{ "type": "Feature", "properties": { "osm_id": "476315655", "code": 5621, "fclass": "bus_stop", "name": "ÄŚeskĂˇ" }, "geometry": { "type": "Point", "coordinates": [ 16.6051609, 49.1982786 ] } },
{ "type": "Feature", "properties": { "osm_id": "476315657", "code": 5621, "fclass": "bus_stop", "name": "ÄŚeskĂˇ" }, "geometry": { "type": "Point", "coordinates": [ 16.6051388, 49.1983297 ] } },
{ "type": "Feature", "properties": { "osm_id": "4223707645", "code": 5621, "fclass": "bus_stop", "name": "KuĹ™im, Prefa rozcestĂ­" }, "geometry": { "type": "Point", "coordinates": [ 16.5484101, 49.3162704 ] } },
{ "type": "Feature", "properties": { "osm_id": "3320811572", "code": 5601, "fclass": "railway_station", "name": "Brno-Chrlice" }, "geometry": { "type": "Point", "coordinates": [ 16.6568156, 49.1320434 ] } },
{ "type": "Feature", "properties": { "osm_id": "4223770086", "code": 5621, "fclass": "bus_stop", "name": "Kristenova" }, "geometry": { "type": "Point", "coordinates": [ 16.5542851, 49.2211416 ] } },
{ "type": "Feature", "properties": { "osm_id": "4223770087", "code": 5621, "fclass": "bus_stop", "name": "Kristenova" }, "geometry": { "type": "Point", "coordinates": [ 16.5544088, 49.2210299 ] } },
{ "type": "Feature", "properties": { "osm_id": "3320811579", "code": 5602, "fclass": "railway_halt", "name": "HostÄ›rĂˇdky-ReĹˇov" }, "geometry": { "type": "Point", "coordinates": [ 16.7830233, 49.1197613 ] } },
{ "type": "Feature", "properties": { "osm_id": "4223770088", "code": 5621, "fclass": "bus_stop", "name": "Chaloupky" }, "geometry": { "type": "Point", "coordinates": [ 16.5570942, 49.2231925 ] } },
{ "type": "Feature", "properties": { "osm_id": "4223770289", "code": 5621, "fclass": "bus_stop", "name": "Chaloupky" }, "geometry": { "type": "Point", "coordinates": [ 16.5565447, 49.2227458 ] } },
{ "type": "Feature", "properties": { "osm_id": "3320811581", "code": 5601, "fclass": "railway_station", "name": "Sokolnice-Telnice" }, "geometry": { "type": "Point", "coordinates": [ 16.733532, 49.1082302 ] } },
{ "type": "Feature", "properties": { "osm_id": "4223770290", "code": 5621, "fclass": "bus_stop", "name": "KomĂ­n - sĂ­dliĹˇtÄ›" }, "geometry": { "type": "Point", "coordinates": [ 16.5533645, 49.2267334 ] } },
{ "type": "Feature", "properties": { "osm_id": "4223770291", "code": 5621, "fclass": "bus_stop", "name": "KomĂ­n - sĂ­dliĹˇtÄ›" }, "geometry": { "type": "Point", "coordinates": [ 16.5532917, 49.2270067 ] } },
{ "type": "Feature", "properties": { "osm_id": "3320826909", "code": 5602, "fclass": "railway_halt", "name": "Ăšjezd u Brna" }, "geometry": { "type": "Point", "coordinates": [ 16.7456655, 49.1071713 ] } },
{ "type": "Feature", "properties": { "osm_id": "3321572713", "code": 5601, "fclass": "railway_station", "name": "Brno-Slatina" }, "geometry": { "type": "Point", "coordinates": [ 16.6824238, 49.1696673 ] } },
{ "type": "Feature", "properties": { "osm_id": "3321572716", "code": 5602, "fclass": "railway_halt", "name": "PonÄ›tovice" }, "geometry": { "type": "Point", "coordinates": [ 16.7481357, 49.1545103 ] } },
{ "type": "Feature", "properties": { "osm_id": "2412551191", "code": 5621, "fclass": "bus_stop", "name": "ÄŚejkovickĂˇ" }, "geometry": { "type": "Point", "coordinates": [ 16.6619772, 49.2003668 ] } },
{ "type": "Feature", "properties": { "osm_id": "3321572717", "code": 5621, "fclass": "bus_stop", "name": "Slatina, nĂˇdraĹľĂ­" }, "geometry": { "type": "Point", "coordinates": [ 16.6825858, 49.1696448 ] } },
{ "type": "Feature", "properties": { "osm_id": "3321574164", "code": 5601, "fclass": "railway_station", "name": "Ĺ lapanice" }, "geometry": { "type": "Point", "coordinates": [ 16.7296932, 49.1569132 ] } },
{ "type": "Feature", "properties": { "osm_id": "3323463634", "code": 5602, "fclass": "railway_halt", "name": "Brno-ÄŚernovice" }, "geometry": { "type": "Point", "coordinates": [ 16.6312375, 49.1889828 ] } },
{ "type": "Feature", "properties": { "osm_id": "3325029085", "code": 5601, "fclass": "railway_station", "name": "Brno hlavnĂ­ nĂˇdraĹľĂ­" }, "geometry": { "type": "Point", "coordinates": [ 16.6131116, 49.1911221 ] } },
{ "type": "Feature", "properties": { "osm_id": "3325029088", "code": 5601, "fclass": "railway_station", "name": "Brno-HornĂ­ HerĹˇpice" }, "geometry": { "type": "Point", "coordinates": [ 16.6066319, 49.167103 ] } },
{ "type": "Feature", "properties": { "osm_id": "3325029091", "code": 5602, "fclass": "railway_halt", "name": "HlavnĂ­ nĂˇdraĹľĂ­" }, "geometry": { "type": "Point", "coordinates": [ 16.6122911, 49.1912459 ] } },
{ "type": "Feature", "properties": { "osm_id": "3325029099", "code": 5603, "fclass": "tram_stop", "name": "NovĂ© sady" }, "geometry": { "type": "Point", "coordinates": [ 16.6092274, 49.1901083 ] } },
{ "type": "Feature", "properties": { "osm_id": "3325196997", "code": 5601, "fclass": "railway_station", "name": "Brno-Ĺ˝idenice" }, "geometry": { "type": "Point", "coordinates": [ 16.6368038, 49.2041918 ] } },
{ "type": "Feature", "properties": { "osm_id": "4229568624", "code": 5621, "fclass": "bus_stop", "name": "KĹ™Ă­dlovickĂˇ" }, "geometry": { "type": "Point", "coordinates": [ 16.6008074, 49.1853893 ] } },
{ "type": "Feature", "properties": { "osm_id": "4229568625", "code": 5621, "fclass": "bus_stop", "name": "KĹ™Ă­dlovickĂˇ" }, "geometry": { "type": "Point", "coordinates": [ 16.6015265, 49.1848039 ] } },
{ "type": "Feature", "properties": { "osm_id": "4229580906", "code": 5621, "fclass": "bus_stop", "name": "ĹezĂˇÄŤova" }, "geometry": { "type": "Point", "coordinates": [ 16.5554596, 49.2266207 ] } },
{ "type": "Feature", "properties": { "osm_id": "3327530784", "code": 5601, "fclass": "railway_station", "name": "Brno-KrĂˇlovo Pole" }, "geometry": { "type": "Point", "coordinates": [ 16.596159, 49.2306772 ] } },
{ "type": "Feature", "properties": { "osm_id": "4229580907", "code": 5621, "fclass": "bus_stop", "name": "ĹezĂˇÄŤova" }, "geometry": { "type": "Point", "coordinates": [ 16.5555247, 49.2259635 ] } },
{ "type": "Feature", "properties": { "osm_id": "3327530786", "code": 5602, "fclass": "railway_halt", "name": "Brno-LesnĂˇ" }, "geometry": { "type": "Point", "coordinates": [ 16.62645, 49.220737 ] } },
{ "type": "Feature", "properties": { "osm_id": "4229580908", "code": 5621, "fclass": "bus_stop", "name": "Olbrachtovo nĂˇmÄ›stĂ­" }, "geometry": { "type": "Point", "coordinates": [ 16.5586935, 49.225117 ] } },
{ "type": "Feature", "properties": { "osm_id": "3327530787", "code": 5602, "fclass": "railway_halt", "name": "Brno-ĹeÄŤkovice" }, "geometry": { "type": "Point", "coordinates": [ 16.5900503, 49.2506509 ] } },
{ "type": "Feature", "properties": { "osm_id": "4229580909", "code": 5621, "fclass": "bus_stop", "name": "Olbrachtovo nĂˇmÄ›stĂ­" }, "geometry": { "type": "Point", "coordinates": [ 16.5585339, 49.2243385 ] } },
{ "type": "Feature", "properties": { "osm_id": "4229603837", "code": 5621, "fclass": "bus_stop", "name": "AutobusovĂ© nĂˇdraĹľĂ­" }, "geometry": { "type": "Point", "coordinates": [ 16.6139985, 49.185896 ] } },
{ "type": "Feature", "properties": { "osm_id": "1510276332", "code": 5621, "fclass": "bus_stop", "name": "LĂ­ĹˇeĹ, JĂ­rova" }, "geometry": { "type": "Point", "coordinates": [ 16.6879725, 49.2089466 ] } },
{ "type": "Feature", "properties": { "osm_id": "4229603838", "code": 5621, "fclass": "bus_stop", "name": "AutobusovĂ© nĂˇdraĹľĂ­" }, "geometry": { "type": "Point", "coordinates": [ 16.6129935, 49.185147 ] } },
{ "type": "Feature", "properties": { "osm_id": "3329757237", "code": 5603, "fclass": "tram_stop", "name": "NĂˇmÄ›stĂ­ Svobody" }, "geometry": { "type": "Point", "coordinates": [ 16.6080117, 49.1957638 ] } },
{ "type": "Feature", "properties": { "osm_id": "3329757240", "code": 5603, "fclass": "tram_stop", "name": "ZelnĂ˝ trh" }, "geometry": { "type": "Point", "coordinates": [ 16.6099559, 49.1930002 ] } },
{ "type": "Feature", "properties": { "osm_id": "3329758744", "code": 5603, "fclass": "tram_stop", "name": "ÄŚeskĂˇ" }, "geometry": { "type": "Point", "coordinates": [ 16.6052515, 49.1975832 ] } },
{ "type": "Feature", "properties": { "osm_id": "4232387008", "code": 5621, "fclass": "bus_stop", "name": "SvrateckĂˇ" }, "geometry": { "type": "Point", "coordinates": [ 16.5537985, 49.2175543 ] } },
{ "type": "Feature", "properties": { "osm_id": "3331518920", "code": 5603, "fclass": "tram_stop", "name": "KomenskĂ©ho nĂˇmÄ›stĂ­" }, "geometry": { "type": "Point", "coordinates": [ 16.6023778, 49.197103 ] } },
{ "type": "Feature", "properties": { "osm_id": "4232387009", "code": 5621, "fclass": "bus_stop", "name": "SvrateckĂˇ" }, "geometry": { "type": "Point", "coordinates": [ 16.5527077, 49.2183258 ] } },
{ "type": "Feature", "properties": { "osm_id": "3331519244", "code": 5603, "fclass": "tram_stop", "name": "Ĺ ilingrovo nĂˇmÄ›stĂ­" }, "geometry": { "type": "Point", "coordinates": [ 16.6051036, 49.1922426 ] } },
{ "type": "Feature", "properties": { "osm_id": "4235115281", "code": 5621, "fclass": "bus_stop", "name": "KuĹ™im, PodlesĂ­, Pramen" }, "geometry": { "type": "Point", "coordinates": [ 16.5572647, 49.3051054 ] } },
{ "type": "Feature", "properties": { "osm_id": "4236928367", "code": 5621, "fclass": "bus_stop", "name": "KoniklecovĂˇ" }, "geometry": { "type": "Point", "coordinates": [ 16.5594036, 49.1764265 ] } },
{ "type": "Feature", "properties": { "osm_id": "4237005501", "code": 5621, "fclass": "bus_stop", "name": "KoniklecovĂˇ" }, "geometry": { "type": "Point", "coordinates": [ 16.5582005, 49.1766465 ] } },
{ "type": "Feature", "properties": { "osm_id": "4237637966", "code": 5621, "fclass": "bus_stop", "name": null }, "geometry": { "type": "Point", "coordinates": [ 16.7222877, 49.1831115 ] } },
{ "type": "Feature", "properties": { "osm_id": "4239293880", "code": 5621, "fclass": "bus_stop", "name": "Poliklinika Ĺ˝idenice" }, "geometry": { "type": "Point", "coordinates": [ 16.6543677, 49.1961094 ] } },
{ "type": "Feature", "properties": { "osm_id": "4243851611", "code": 5621, "fclass": "bus_stop", "name": "MaleÄŤkova" }, "geometry": { "type": "Point", "coordinates": [ 16.6926682, 49.1855661 ] } },
{ "type": "Feature", "properties": { "osm_id": "4243874396", "code": 5621, "fclass": "bus_stop", "name": "Slatina SĂ­dliĹˇtÄ›" }, "geometry": { "type": "Point", "coordinates": [ 16.6903184, 49.181891 ] } },
{ "type": "Feature", "properties": { "osm_id": "4243882306", "code": 5621, "fclass": "bus_stop", "name": "Slatina RozcestĂ­" }, "geometry": { "type": "Point", "coordinates": [ 16.6918601, 49.1815947 ] } },
{ "type": "Feature", "properties": { "osm_id": "4243882307", "code": 5621, "fclass": "bus_stop", "name": "MaleÄŤkova" }, "geometry": { "type": "Point", "coordinates": [ 16.6926794, 49.1859695 ] } },
{ "type": "Feature", "properties": { "osm_id": "4243882790", "code": 5621, "fclass": "bus_stop", "name": "Slatina SĂ­dliĹˇtÄ›" }, "geometry": { "type": "Point", "coordinates": [ 16.6899706, 49.1816972 ] } },
{ "type": "Feature", "properties": { "osm_id": "4243884091", "code": 5621, "fclass": "bus_stop", "name": "Slatina SĂ­dliĹˇtÄ›" }, "geometry": { "type": "Point", "coordinates": [ 16.6895688, 49.1822809 ] } },
{ "type": "Feature", "properties": { "osm_id": "4243904390", "code": 5621, "fclass": "bus_stop", "name": "Rotreklova" }, "geometry": { "type": "Point", "coordinates": [ 16.6853309, 49.2065978 ] } },
{ "type": "Feature", "properties": { "osm_id": "315043667", "code": 5621, "fclass": "bus_stop", "name": "TechnickĂˇ" }, "geometry": { "type": "Point", "coordinates": [ 16.5781043, 49.2236232 ] } },
{ "type": "Feature", "properties": { "osm_id": "4243904490", "code": 5621, "fclass": "bus_stop", "name": "Slatina SĂ­dliĹˇtÄ›" }, "geometry": { "type": "Point", "coordinates": [ 16.6902315, 49.1822168 ] } },
{ "type": "Feature", "properties": { "osm_id": "315043695", "code": 5621, "fclass": "bus_stop", "name": "KolejnĂ­" }, "geometry": { "type": "Point", "coordinates": [ 16.5718105, 49.2306809 ] } },
{ "type": "Feature", "properties": { "osm_id": "4243904590", "code": 5621, "fclass": "bus_stop", "name": "KromÄ›Ĺ™Ă­ĹľskĂˇ" }, "geometry": { "type": "Point", "coordinates": [ 16.6892429, 49.1790845 ] } },
{ "type": "Feature", "properties": { "osm_id": "315043696", "code": 5621, "fclass": "bus_stop", "name": "PodnikatelskĂˇ" }, "geometry": { "type": "Point", "coordinates": [ 16.576317, 49.2273397 ] } },
{ "type": "Feature", "properties": { "osm_id": "4243910589", "code": 5621, "fclass": "bus_stop", "name": "KromÄ›Ĺ™Ă­ĹľskĂˇ" }, "geometry": { "type": "Point", "coordinates": [ 16.6882582, 49.1783571 ] } },
{ "type": "Feature", "properties": { "osm_id": "315054318", "code": 5621, "fclass": "bus_stop", "name": "SkalnĂ­" }, "geometry": { "type": "Point", "coordinates": [ 16.5376026, 49.1742585 ] } },
{ "type": "Feature", "properties": { "osm_id": "4243940689", "code": 5621, "fclass": "bus_stop", "name": "VlĂˇrskĂˇ" }, "geometry": { "type": "Point", "coordinates": [ 16.6740518, 49.1815991 ] } },
{ "type": "Feature", "properties": { "osm_id": "1518591156", "code": 5621, "fclass": "bus_stop", "name": "BarviÄŤova" }, "geometry": { "type": "Point", "coordinates": [ 16.5757436, 49.2010358 ] } },
{ "type": "Feature", "properties": { "osm_id": "4243940789", "code": 5621, "fclass": "bus_stop", "name": "VlĂˇrskĂˇ" }, "geometry": { "type": "Point", "coordinates": [ 16.6742609, 49.1815902 ] } },
{ "type": "Feature", "properties": { "osm_id": "1518591174", "code": 5621, "fclass": "bus_stop", "name": "BarviÄŤova" }, "geometry": { "type": "Point", "coordinates": [ 16.5757541, 49.2012023 ] } },
{ "type": "Feature", "properties": { "osm_id": "4243991893", "code": 5621, "fclass": "bus_stop", "name": "Muzeum Dopravy" }, "geometry": { "type": "Point", "coordinates": [ 16.6944882, 49.2016467 ] } },
{ "type": "Feature", "properties": { "osm_id": "4244018395", "code": 5621, "fclass": "bus_stop", "name": "NĂˇmÄ›stĂ­ Karla IV." }, "geometry": { "type": "Point", "coordinates": [ 16.6945817, 49.2064471 ] } },
{ "type": "Feature", "properties": { "osm_id": "4244027991", "code": 5621, "fclass": "bus_stop", "name": "Holzova" }, "geometry": { "type": "Point", "coordinates": [ 16.6969243, 49.194827 ] } },
{ "type": "Feature", "properties": { "osm_id": "4244041390", "code": 5621, "fclass": "bus_stop", "name": "LeteckĂˇ" }, "geometry": { "type": "Point", "coordinates": [ 16.6959388, 49.1975826 ] } },
{ "type": "Feature", "properties": { "osm_id": "4244041890", "code": 5621, "fclass": "bus_stop", "name": "Holzova" }, "geometry": { "type": "Point", "coordinates": [ 16.6970266, 49.1949369 ] } },
{ "type": "Feature", "properties": { "osm_id": "4244041891", "code": 5621, "fclass": "bus_stop", "name": "Muzeum dopravy" }, "geometry": { "type": "Point", "coordinates": [ 16.694388, 49.2017283 ] } },
{ "type": "Feature", "properties": { "osm_id": "4244042889", "code": 5621, "fclass": "bus_stop", "name": "LeteckĂˇ" }, "geometry": { "type": "Point", "coordinates": [ 16.6959212, 49.1976554 ] } },
{ "type": "Feature", "properties": { "osm_id": "4244042890", "code": 5621, "fclass": "bus_stop", "name": "NĂˇmÄ›stĂ­ Karla IV." }, "geometry": { "type": "Point", "coordinates": [ 16.6942897, 49.2066654 ] } },
{ "type": "Feature", "properties": { "osm_id": "4244042989", "code": 5621, "fclass": "bus_stop", "name": "NĂˇmÄ›stĂ­ Karla IV." }, "geometry": { "type": "Point", "coordinates": [ 16.6944759, 49.2062755 ] } },
{ "type": "Feature", "properties": { "osm_id": "4244216590", "code": 5621, "fclass": "bus_stop", "name": "Vozovna Slatina - vĂ˝stup" }, "geometry": { "type": "Point", "coordinates": [ 16.6719631, 49.1829446 ] } },
{ "type": "Feature", "properties": { "osm_id": "1529032439", "code": 5621, "fclass": "bus_stop", "name": "Chrlice, nĂˇdraĹľĂ­" }, "geometry": { "type": "Point", "coordinates": [ 16.6565577, 49.1317794 ] } },
{ "type": "Feature", "properties": { "osm_id": "1531570863", "code": 5621, "fclass": "bus_stop", "name": "Elplova" }, "geometry": { "type": "Point", "coordinates": [ 16.6748251, 49.2104202 ] } },
{ "type": "Feature", "properties": { "osm_id": "1531570869", "code": 5621, "fclass": "bus_stop", "name": "Elplova" }, "geometry": { "type": "Point", "coordinates": [ 16.6751176, 49.2104429 ] } },